,name,street_address,price,cuisine,rating,latitude,longitude,price_mid,cuisine_cat
0,1-V:U,"The Outpost Hotel Sentosa, 10 Artillery Avenue, Level 7",$31 - $50,Asian Variety,3.5,1.252299,103.820211,40.5,0
1,10 At Claymore,"Pan Pacific Orchard, 10 Claymore Road Level 2",$51 - $80,Multi-Cuisine,4.0,1.307401,103.829904,65.5,1
3,100g Korean BBQ,93 Amoy Street,$21 - $30,Korean,3.5,1.281299,103.847092,25.5,2
4,10th Chocolate Street,"GSM Buidling, 141 Middle Road",$11 - $20,Belgian,3.5,1.299438,103.852403,15.5,3
5,123 Seafood,"Chinatown Complex Market and Food Centre, 335 Smith St #02-203/204",$0 - $9,"Singaporean, Chinese",3.5,1.28236,103.843546,4.5,4
5,123 Seafood,"Chinatown Complex Market and Food Centre, 335 Smith St #02-203/204",$0 - $9,"Singaporean, Chinese",3.5,1.28236,103.843546,4.5,5
6,126 Wen Dou Sek,126 Sims Avenue,$11 - $20,Cantonese/Hong Kong,4.0,1.314219,103.878429,15.5,6
6,126 Wen Dou Sek,126 Sims Avenue,$11 - $20,Cantonese/Hong Kong,4.0,1.314219,103.878429,15.5,7
7,126 Wen Dou Sek,1086 Serangoon Road,$0 - $9,Cantonese/Hong Kong,3.5,1.323609,103.86496,4.5,6
7,126 Wen Dou Sek,1086 Serangoon Road,$0 - $9,Cantonese/Hong Kong,3.5,1.323609,103.86496,4.5,7
10,132 Traditional Teochew Noodle,"CCMW Coffeeshop, Blk 59 Marine Terrace, #01-105",$0 - $9,Chinese,3.0,1.305812,103.914768,4.5,5
12,136 Hong Kong Street Fish Head Steamboat,291 South Bridge Road,$11 - $20,"Teochew, Chinese",3.5,1.281415,103.845043,15.5,8
12,136 Hong Kong Street Fish Head Steamboat,291 South Bridge Road,$11 - $20,"Teochew, Chinese",3.5,1.281415,103.845043,15.5,5
13,136 Hong Kong Street Fish Head Steamboat,Blk 19 Lorong 7 Toa Payoh #01-264,$11 - $20,Cantonese/Hong Kong,3.5,1.33533,103.856453,15.5,6
13,136 Hong Kong Street Fish Head Steamboat,Blk 19 Lorong 7 Toa Payoh #01-264,$11 - $20,Cantonese/Hong Kong,3.5,1.33533,103.856453,15.5,7
15,138 Kway Chap Porridge,"Bukit Timah Market &amp; Food Centre, 116 Upper Bukit Timah Road #02-138",$0 - $9,Singaporean,3.5,1.339401,103.776083,4.5,4
17,18 Economical Delights,"Maxwell Food Centre, 1 Kadayanallur St #01-18",$0 - $9,"Singaporean, Chinese",3.5,1.280489,103.844672,4.5,4
17,18 Economical Delights,"Maxwell Food Centre, 1 Kadayanallur St #01-18",$0 - $9,"Singaporean, Chinese",3.5,1.280489,103.844672,4.5,5
20,1983 A Taste Of Nanyang,"Jem, 50 Jurong Gateway Road #05-04 (Cookhouse)",$0 - $9,Malay,3.5,1.333169,103.743536,4.5,9
21,1st Grade Otah,"Downtown East, 1 Pasir Ris Close #01-22",$0 - $9,Singaporean,3.0,1.377757,103.955297,4.5,4
24,201C Fish Ball Noodles,Blk 201C Tampines St 21,$0 - $9,"Singaporean, Chinese",3.5,1.352813,103.953001,4.5,4
24,201C Fish Ball Noodles,Blk 201C Tampines St 21,$0 - $9,"Singaporean, Chinese",3.5,1.352813,103.953001,4.5,5
26,21 on Rajah,"Days Hotel, 1 Jalan Rajah Road",$31 - $50,"Middle Eastern/Mediterranean, Singaporean",3.5,1.326978,103.847366,40.5,10
26,21 on Rajah,"Days Hotel, 1 Jalan Rajah Road",$31 - $50,"Middle Eastern/Mediterranean, Singaporean",3.5,1.326978,103.847366,40.5,11
26,21 on Rajah,"Days Hotel, 1 Jalan Rajah Road",$31 - $50,"Middle Eastern/Mediterranean, Singaporean",3.5,1.326978,103.847366,40.5,4
27,2D1N Soju Bang Korean Restaurant,44/46 Tanjong Pagar Road,$31 - $50,Korean,4.0,1.279349,103.843652,40.5,2
28,2nd Mini Steamboat Delight,"Novena Gardens, 273 Thomson Road, #01-04",$11 - $20,Singaporean,4.0,1.320479,103.841994,15.5,4
29,2The Pot,333 Joo Chiat Road,$11 - $20,"Thai, Chinese",3.5,1.309063,103.90282,15.5,12
29,2The Pot,333 Joo Chiat Road,$11 - $20,"Thai, Chinese",3.5,1.309063,103.90282,15.5,5
30,328 Katong Laksa,"Queensway Shopping Centre, 1 Queensway #01-60",$0 - $9,Peranakan / Nonya,3.5,1.287477,103.8034,4.5,13
30,328 Katong Laksa,"Queensway Shopping Centre, 1 Queensway #01-60",$0 - $9,Peranakan / Nonya,3.5,1.287477,103.8034,4.5,14
31,328 Katong Laksa,51 East Coast Road,$0 - $9,Singaporean Chinese,3.5,1.305096,103.903211,4.5,15
32,328 Katong Laksa,216 East Coast Road,$0 - $9,Chinese,3.5,1.307317,103.907347,4.5,5
33,363 Holland Village Nasi Lemak,"Holland Village Market &amp; Food Centre, 1 Lorong Mambong #01-15",$0 - $9,Malay,3.5,1.311803,103.796177,4.5,9
34,4 Fingers Crispy Chicken,"Plaza Singapura, 68 Orchard Road #B1-07",$0 - $9,Korean,3.5,1.300005,103.844626,4.5,2
35,4 Fingers Crispy Chicken,"ION Orchard, 2 Orchard Turn #B4-06A",$0 - $9,Korean,3.5,1.304082,103.832016,4.5,2
36,5 Drunken Rabbits Bistro &amp; Bar,201 Pasir Ris Road,$21 - $30,American,3.0,1.382091,103.947924,25.5,16
37,5 Little Bears,"Far East Plaza, 14 Scotts Road #01-07",$0 - $9,"Taiwanese, Chinese",3.0,1.307079,103.833146,4.5,17
37,5 Little Bears,"Far East Plaza, 14 Scotts Road #01-07",$0 - $9,"Taiwanese, Chinese",3.0,1.307079,103.833146,4.5,5
38,5 Little Bears,"Paya Lebar Square, 60 Paya Lebar Road #B1-09",$0 - $9,Taiwanese,3.5,1.318786,103.892577,4.5,17
39,5 Senses,"799 New Upper Changi Road, #02-30/31",$11 - $20,French,3.5,1.324952,103.932317,15.5,18
41,69 Cold Soya Beancurd,"115 Bukit Merah View Market &amp; Food Centre, Blk 115 Bukit Merah View #01-76",$0 - $9,"Singaporean, Chinese",3.5,1.285187,103.822077,4.5,4
41,69 Cold Soya Beancurd,"115 Bukit Merah View Market &amp; Food Centre, Blk 115 Bukit Merah View #01-76",$0 - $9,"Singaporean, Chinese",3.5,1.285187,103.822077,4.5,5
42,(7&quot;)&#178; Pizza,"Lau Pa Sat Festival Market, 18 Raffles Quay",$0 - $9,Italian,3.5,1.280259,103.850614,4.5,19
44,7 Wonders Seafood,369 Jalan Besar,$11 - $20,Singaporean Chinese,3.5,1.312819,103.859594,15.5,15
46,761 Yishun Seafood,"Blk 761, Yishun St 72",$0 - $9,Singaporean,3.0,1.425474,103.833219,4.5,4
47,78 Economic Mixed Rice - KTP Coffee Shop,"KTP Coffee Shop, 401 Hougang Avenue 10",$0 - $9,Singaporean,3.5,1.37484,103.896991,4.5,4
48,8 Korean BBQ,"The Central, 6 Eu Tong Sen St #02-79/90",$31 - $50,Korean,4.0,1.28878,103.846236,40.5,2
49,8 Korean BBQ,"1 Scotts Road, #04-20/21 Shaw Centre",$31 - $50,Korean,3.5,1.305918,103.832015,40.5,2
51,85 Bedok North Fried Oyster,"Bedok 85 Market, Blk 85 Bedok North St 4 #01-09/10",$0 - $9,"Singaporean, Chinese",3.5,1.332,103.938762,4.5,4
51,85 Bedok North Fried Oyster,"Bedok 85 Market, Blk 85 Bedok North St 4 #01-09/10",$0 - $9,"Singaporean, Chinese",3.5,1.332,103.938762,4.5,5
52,88 Chicken Rice,Blk 726 Clementi West,$0 - $9,"Singaporean, Chinese",3.5,1.30413,103.764564,4.5,4
52,88 Chicken Rice,Blk 726 Clementi West,$0 - $9,"Singaporean, Chinese",3.5,1.30413,103.764564,4.5,5
53,8Tarts n Pastries,"Tampines Mall, 4 Tampines Central 5 #B1-K13",$0 - $9,Cantonese/Hong Kong,3.5,1.352645,103.94473,4.5,6
53,8Tarts n Pastries,"Tampines Mall, 4 Tampines Central 5 #B1-K13",$0 - $9,Cantonese/Hong Kong,3.5,1.352645,103.94473,4.5,7
56,9Goubuli,"Marina Bay Sands, 2 Bayfront Avenue #B2-02 (The Shoppes)",$21 - $30,Singaporean Chinese,3.5,1.283697,103.860723,25.5,15
57,A B Mohamed Restaurant,276/8 Serangoon Road,$0 - $9,Indian,3.5,1.310496,103.854587,4.5,20
58,A for Arbite,28 Aliwal St #01-01,$21 - $30,Fusion,4.0,1.302552,103.86107,25.5,21
59,A-Gan TEA,Blk 703 Ang Mo Kio Ave 8 #01-25,$0 - $9,Taiwanese,3.5,1.369778,103.84732,4.5,17
60,A-One Bak Kut Teh,"The Star Vista, 1 Vista Exchange Green #01-46",$11 - $20,"Singaporean, Chinese",3.5,1.306871,103.78857,15.5,4
60,A-One Bak Kut Teh,"The Star Vista, 1 Vista Exchange Green #01-46",$11 - $20,"Singaporean, Chinese",3.5,1.306871,103.78857,15.5,5
62,A-One Claypot House,"Bukit Panjang Plaza, 1 Jelubu Road #01-58/59",$11 - $20,Chinese,3.5,1.378902,103.76171,15.5,5
64,A-One Claypot House,Tampines 1 #05-04,$0 - $9,Chinese,3.5,1.354803,103.943453,4.5,5
66,A.R.C. Coffee,29/31 Sultan Gate,$11 - $20,American,3.5,1.30137,103.860681,15.5,16
67,A-Roy Thai Restaurant,"238 Thomson Road, #03-61, Novena Square",$11 - $20,Thai,4.0,1.319589,103.844028,15.5,12
68,A-Roy Thai Restaurant,"Goodwill Court, 81 Upper East Coast Road",$11 - $20,Thai,4.0,1.312998,103.927624,15.5,12
69,A&amp;W,"Jewel Changi Airport, 78 Airport Boulevard, #B2-209",$0 - $9,American,3.5,1.360234,103.989709,4.5,16
70,A1 Chicken Rice,"Ang Mo Kio Market &amp; Food Centre, Blk 724 Ang Mo Kio Ave 6 #01-42",$0 - $9,Hainanese,3.5,1.37008,103.849523,4.5,22
72,A1 Family Ayam Goreng &amp; Western Food - TP406 Food House,406 Tampines Street 41 #01-07,$0 - $9,Singaporean Western,3.5,1.358074,103.945768,4.5,23
74,Absinthe,72 Boat Quay,$51 - $80,French,3.5,1.288015,103.849246,65.5,18
75,Aburiya,"The Quayside, 60 Robertson Quay #01-03",$31 - $50,Japanese,4.0,1.290185,103.839111,40.5,24
76,Adam&#39;s Delights,"Adam Road Food Centre, 2 Adam Road #01-11",$0 - $9,Indian,3.5,1.324163,103.814149,4.5,20
77,Addictions Caf&#233; &amp; Remedy Bar,"Marina Square, 6 Raffles Boulevard #02-105A",$21 - $30,Multi-Cuisine,3.5,1.291914,103.856261,25.5,1
79,Aglio Olio,"Nankin Row, 3 Pickering St #01-40/41",$11 - $20,Italian,3.5,1.283955,103.847818,15.5,19
80,Agrobazaar Malaysia,37-43 Sultan Gate,$0 - $9,Malaysian,3.5,1.301576,103.860554,4.5,25
82,Ah Chuan Fried Oyster Omelette,"Kim Keat Palm Market &amp; Food Centre, Blk 22 Lorong 7 Toa Payoh #01-25",$0 - $9,Fujian/Heng Hwa,3.5,1.335532,103.85695,4.5,26
82,Ah Chuan Fried Oyster Omelette,"Kim Keat Palm Market &amp; Food Centre, Blk 22 Lorong 7 Toa Payoh #01-25",$0 - $9,Fujian/Heng Hwa,3.5,1.335532,103.85695,4.5,27
83,Ah Dong Tea Restaurant,10 Tebing Lane #01-03/04,$0 - $9,Fusion,3.5,1.392912,103.917405,4.5,21
84,Ah Heng Curry Chicken Bee Hoon Mee,"Hong Lim Market &amp; Food Centre, Blk 531A Upper Cross St #02-57/58",$0 - $9,Chinese,4.0,1.285221,103.845905,4.5,5
85,Ah Heng Duck Rice,"Hong Lim Market &amp; Food Centre, Blk 531A Upper Cross St #02-64",$0 - $9,Chinese,3.5,1.285221,103.845905,4.5,5
89,Ah Kow Mushroom Minced Pork Mee,Block 359 Bukit Batok Street 31,$0 - $9,"Malaysian, Singaporean Chinese",3.5,1.361365,103.751307,4.5,25
89,Ah Kow Mushroom Minced Pork Mee,Block 359 Bukit Batok Street 31,$0 - $9,"Malaysian, Singaporean Chinese",3.5,1.361365,103.751307,4.5,15
91,Ah Liang BBQ Seafood,"Serangoon Garden Market &amp; Food Centre, 49A Serangoon Garden Way",$0 - $9,Singaporean,3.0,1.363239,103.866651,4.5,4
93,Ah Loy Thai,"Shaw Towers, 100 Beach Road #01-39/40",$11 - $20,Thai,4.0,1.296996,103.85689,15.5,12
94,Ah Meng Restaurant,"Singapore Zoo, 80 Mandai Lake Road",$0 - $9,Singaporean,3.5,1.404081,103.783544,4.5,4
95,Ah Nam BBQ Seafood Steamed Fish,"Changi Village Hawker Centre, Blk 2 Changi Village Road #01-67/68",$0 - $9,Chinese,3.5,1.38907,103.988457,4.5,5
96,Ah Orh Seafood Restaurant,Blk 115 Jalan Bukit Merah #01-1627,$31 - $50,"Teochew, Chinese",4.0,1.284098,103.814547,40.5,8
96,Ah Orh Seafood Restaurant,Blk 115 Jalan Bukit Merah #01-1627,$31 - $50,"Teochew, Chinese",4.0,1.284098,103.814547,40.5,5
97,Ah Seah Teochew Porridge,31/33 Teck Chye Terrace,$0 - $9,"Teochew, Chinese",3.0,1.353392,103.87677,4.5,8
97,Ah Seah Teochew Porridge,31/33 Teck Chye Terrace,$0 - $9,"Teochew, Chinese",3.0,1.353392,103.87677,4.5,5
100,Ah Teck Herbal Claypot Bak Kut Teh ,"161 Bukit Merah Central, #01-3749, Hua Ren Ju Seafood Restaurant",$0 - $9,Singaporean,3.5,1.283532,103.815885,4.5,4
101,Ah Yat Seafood Restaurant,"The Grandstand, 200 Turf Club Road #03-01/02",$51 - $80,Chinese,3.5,1.338869,103.792986,65.5,5
102,Ah Yee&#39;s Soon Kueh,"Dunman Food Centre,  271 Onan Road #01-05",$0 - $9,Teochew,3.5,1.309418,103.901833,4.5,8
103,Aher Soup,443 Pasir Ris,$0 - $9,"Singaporean, Chinese",3.5,1.369589,103.957391,4.5,4
103,Aher Soup,443 Pasir Ris,$0 - $9,"Singaporean, Chinese",3.5,1.369589,103.957391,4.5,5
105,AiSkiLin,215F Upper Thomson Road,$0 - $9,Thai,3.5,1.352354,103.834886,4.5,12
106,Ajisen Ramen,"Lot One Shoppers&#39; Mall, 21 Choa Chu Kang Ave 4 #04-11/12",$11 - $20,Japanese,4.0,1.385003,103.744925,15.5,24
107,Ajisen Ramen,"The Clementi Mall, 3155 Commonwealth Ave West #B1-34/35",$11 - $20,Japanese,4.0,1.314791,103.764247,15.5,24
108,Ajisen Ramen - FEAST,"Jurong Point, 63 Jurong West Central 3 #03-38/38A (JP2)",$11 - $20,Japanese,4.5,1.338894,103.705622,15.5,24
109,Ajisen Ramen,"Hougang Mall, 90 Hougang Ave 10 #02-11/19",$11 - $20,Japanese,3.5,1.37243,103.893756,15.5,24
110,Ajisen Ramen,"IMM, 2 Jurong East St 21 #01-113/114",$11 - $20,Japanese,3.5,1.347118,103.728632,15.5,24
111,Ajisen Ramen - Rasapura Masters,"Marina Bay Sands, 2 Bayfront Avenue #B2-50 (The Shoppes)",$11 - $20,Japanese,3.5,1.283697,103.860723,15.5,24
112,Ajisen Ramen,"Sembawang Shopping Centre, 604 Sembawang Road, #02-29/30",$11 - $20,Japanese,3.5,1.441732,103.824813,15.5,24
113,Ajisen Ramen,"Compass Point, 1 Sengkang Square #02-15",$11 - $20,Japanese,3.5,1.392393,103.895331,15.5,24
114,Ajisen Ramen,"Tampines Mall, 4 Tampines Central 5 #04-19/20",$11 - $20,Japanese,3.5,1.352645,103.94473,15.5,24
115,Akari Japanese Dining &amp; Bar,"Marina Bay Financial Centre, 8A Marina Boulevard #01-02 (Ground Plaza)",$31 - $50,Japanese,3.5,1.279467,103.854504,40.5,24
116,Akashi Japanese Restaurant,"Orchard Parade Hotel, 1 Tanglin Road #01-01A",$31 - $50,Japanese,3.5,1.306552,103.827811,40.5,24
117,Akashi Japanese Restaurant,"VivoCity, 1 Harbourfront Walk #B2-28",$31 - $50,Japanese,3.5,1.263928,103.822229,40.5,24
118,Al-Azhar Eating Restaurant,11 Cheong Chin Nam Road,$0 - $9,"Indian, Malay",3.5,1.342535,103.775246,4.5,20
118,Al-Azhar Eating Restaurant,11 Cheong Chin Nam Road,$0 - $9,"Indian, Malay",3.5,1.342535,103.775246,4.5,9
119,AL Azmath Prata Stall,Blk 632 Ang Mo Kio Ave 4 #01-948,$0 - $9,Indian,3.5,1.380236,103.841285,4.5,20
121,Al Forno East Coast,400 East Coast Road,$21 - $30,Italian,4.0,1.308792,103.912215,25.5,19
122,Al-Mahayas Bryani Prata Hut,"Ang Mo Kio Market &amp; Food Centre, Blk 724 Ang Mo Kio Ave 6 #01-04",$0 - $9,Indian,3.5,1.37008,103.849523,4.5,20
123,Al Mahboob Rojak Restaurant,506 Tampines Central 1 #01-361,$0 - $9,Indian,3.5,1.356035,103.945913,4.5,20
124,Alex&#39;s Eating House,"Chye Sing Building, 87 Beach Road #01-01",$0 - $9,Cantonese/Hong Kong,3.5,1.297403,103.856646,4.5,6
124,Alex&#39;s Eating House,"Chye Sing Building, 87 Beach Road #01-01",$0 - $9,Cantonese/Hong Kong,3.5,1.297403,103.856646,4.5,7
125,Alfero Artisan Gelato,"Orchard Gateway, 277 Orchard Road #B2-06",$0 - $9,Italian,4.0,1.301085,103.838988,4.5,19
128,Alkaff Mansion Ristorante,10 Telok Blangah Green,$31 - $50,Italian,4.0,1.278867,103.813257,40.5,19
129,Alliance Seafood,"Newton Circus Food Centre, 500 Clemenceau Avenue North, #01-27",$21 - $30,Singaporean Chinese,4.5,1.312061,103.839529,25.5,15
130,Alma by Juan Amador,"Goodwood Park Hotel, 22 Scotts Road",$31 - $50,European,3.5,1.308678,103.834669,40.5,28
131,Alt. Pizza,"Suntec City Mall, East Wing, 3 Temasek Boulevard #01-602/603",$21 - $30,Italian,3.5,1.293422,103.856858,25.5,19
132,AmaSoy,"Jurong Point, 63 Jurong West Central 3 #03-42/47 (JP2)",$0 - $9,Japanese,4.0,1.338894,103.705622,4.5,24
133,AmaSoy,"ION Orchard, 2 Orchard Turn #B4-64",$0 - $9,"Japanese, Singaporean",3.0,1.304082,103.832016,4.5,24
133,AmaSoy,"ION Orchard, 2 Orchard Turn #B4-64",$0 - $9,"Japanese, Singaporean",3.0,1.304082,103.832016,4.5,4
134,Amazing Hokkaido,"Riverside View, 30 Robertson Quay, #01-16",$21 - $30,Japanese,3.5,1.291277,103.841351,25.5,24
135,Amazonia Bistro,"Great World City, 1 Kim Seng Promenade #03-08",$0 - $9,American,4.0,1.293902,103.831787,4.5,16
136,Ambush,"Junction 8 Shopping Centre, 9 Bishan Place #02-19/20/27",$11 - $20,European,3.5,1.350045,103.848304,15.5,28
137,Ambush,"Plaza Singapura, 68 Orchard Road #04-64/66",$11 - $20,European,3.5,1.300005,103.844626,15.5,28
138,Ambush,"Jem, 50 Jurong Gateway Road #04-13",$11 - $20,European,3.5,1.333169,103.743536,15.5,28
139,Ambush,"Ngee Ann City, 391 Orchard Road #B2 (Takashimaya Food Hall)",$11 - $20,European,4.0,1.302664,103.834623,15.5,28
140,Amici Authentic Italian Restaurant,"Holland Village, 275 Holland Ave",$21 - $30,"Italian, European",3.5,1.311803,103.796177,25.5,19
140,Amici Authentic Italian Restaurant,"Holland Village, 275 Holland Ave",$21 - $30,"Italian, European",3.5,1.311803,103.796177,25.5,28
143,An Australian Concept - Tasty Foodcourt,"Tanglin Mall, 163 Tanglin Road #B1-17",$0 - $9,Australian / New Zealand,3.5,1.304787,103.82383,4.5,29
143,An Australian Concept - Tasty Foodcourt,"Tanglin Mall, 163 Tanglin Road #B1-17",$0 - $9,Australian / New Zealand,3.5,1.304787,103.82383,4.5,30
144,Ananas Cafe,"Ang Mo Kio MRT Station, 2450 Ang Mo Kio Avenue 8",$0 - $9,Singaporean,3.5,1.369556,103.849635,4.5,4
149,Ananas Cafe,"V Hotel, 70 Jelicoe Road",$0 - $9,Singaporean,3.5,1.298993,103.850795,4.5,4
153,And Why,31 Bali Lane,$11 - $20,American,3.5,1.301293,103.858407,15.5,16
155,Andersen’s of Denmark,"Marina Square, 6 Raffles Boulevard #02-207A",$0 - $9,American,4.0,1.291914,103.856261,4.5,16
157,Andersen’s of Denmark,"IMM, 2 Jurong East St 21 #01-12A",$0 - $9,American,4.0,1.347118,103.728632,4.5,16
158,Aneka Rasa Chicken Rice,"Kovan Hougang Market &amp; Food Centre, 209 Hougang St 21 #01-25",$0 - $9,Malay,3.5,1.359155,103.885976,4.5,9
161,Angel &amp; Devil,22 Keong Saik Road,$31 - $50,"European, Asian Variety",3.5,1.280047,103.841665,40.5,28
161,Angel &amp; Devil,22 Keong Saik Road,$31 - $50,"European, Asian Variety",3.5,1.280047,103.841665,40.5,0
162,Anjappar,"Jurong Point, 63 Jurong West Central 3 #03-35A (JP2)",$11 - $20,Indian,3.5,1.338894,103.705622,15.5,20
163,Annalakshmi,"Chinatown Point, Podium A, 133 New Bridge Road, #B1-02  ",$31 - $50,Indian,3.5,1.285182,103.844621,40.5,20
164,Antoinette,30 Penhas Road,$11 - $20,French,4.0,1.309729,103.86222,15.5,18
165,Aoki Restaurant,"Shaw Centre, 1 Scotts Road #01-17",$81 - $150,Japanese,4.5,1.306359,103.831646,115.5,24
166,AquaMarine,"Marina Mandarin Singapore, 6 Raffles Boulevard Level 4",$31 - $50,Multi-Cuisine,4.0,1.291914,103.856261,40.5,1
167,Arbite,66A Serangoon Garden Way,$21 - $30,European,3.5,1.364082,103.865609,25.5,28
169,Arirang Korean Restaurant,"Liang Seah St, 1 Liang Seah St #01-07",$11 - $20,Korean,2.5,1.297911,103.856337,15.5,2
172,Arossa Wine &amp; Grill,"Scotts Square, 6 Scotts Rd #02-01",$31 - $50,Italian,4.0,1.305834,103.832933,40.5,19
173,Aroy Dee Thai Caf&#233;,262 Middle Road,$0 - $9,Thai,3.5,1.301672,103.850433,4.5,12
174,Aroy Dee Thai Food,"Redhill Food Centre, Blk 85 Redhill Lane,  #01-25",$0 - $9,Singaporean,3.5,1.287312,103.818335,4.5,4
175,Aroy Mak Mookata,510 MacPherson Road,$0 - $9,Thai,3.5,1.332242,103.883913,4.5,12
176,Aroy Mootaka Thai BBQ Steamboat,Blk 1008A Toa Payoh North,$0 - $9,Thai,3.0,1.343274,103.846583,4.5,12
179,Arteastiq DePatio,"Plaza Singapura, 68 Orchard Road, #03-70/72",$51 - $80,English,4.0,1.300005,103.844626,65.5,31
180,Arteastiq,"Mandarin Gallery, 333A Orchard Road, #04-14/15",$51 - $80,"Asian Variety, Fusion",4.0,1.30203,103.836642,65.5,0
180,Arteastiq,"Mandarin Gallery, 333A Orchard Road, #04-14/15",$51 - $80,"Asian Variety, Fusion",4.0,1.30203,103.836642,65.5,21
181,Arteastiq Tea Bone China,"Millenia Walk, 9 Raffles Boulevard #02-19/20",$21 - $30,"Cantonese/Hong Kong, Shanghainese",3.5,1.292083,103.859414,25.5,6
181,Arteastiq Tea Bone China,"Millenia Walk, 9 Raffles Boulevard #02-19/20",$21 - $30,"Cantonese/Hong Kong, Shanghainese",3.5,1.292083,103.859414,25.5,7
181,Arteastiq Tea Bone China,"Millenia Walk, 9 Raffles Boulevard #02-19/20",$21 - $30,"Cantonese/Hong Kong, Shanghainese",3.5,1.292083,103.859414,25.5,32
182,Artisan Boulangerie Co.,"Asia Square Tower 2, 12 Marina View #01-02",$11 - $20,French,3.5,1.278117,103.850773,15.5,18
183,Artistry,17 Jalan Pinang,$11 - $20,English,4.0,1.302891,103.858189,15.5,31
184,AS Indian Classic Cuisine,"Lau Pa Sat Festival Market, 18 Raffles Quay",$0 - $9,Indian,3.5,1.280259,103.850614,4.5,20
185,As-Shifaa Caf&#233;,"Lucky Plaza, 304 Orchard Road #06-52",$0 - $9,Malay,4.5,1.30459,103.83407,4.5,9
186,Asanoya Bakery,15 Queen St #01-03,$0 - $9,Japanese,4.0,1.298038,103.852678,4.5,24
187,Ash &amp; Elm,"InterContinental Singapore, 80 Middle Road Level 1",$31 - $50,European,3.5,1.298437,103.854991,40.5,28
188,Asian Cuisine,"Entrepreneur Business Centre, 18 Kaki Bukit Road 3, #01-15",$21 - $30,Singaporean Chinese,3.5,1.336934,103.902588,25.5,15
189,Asian Market Caf&#233;,"Fairmont Singapore, 80 Bras Basah Road Level 2",$31 - $50,Asian Variety,4.0,1.294082,103.853857,40.5,0
191,Aster Pau,"AMK Hub, 53 Ang Mo Kio Ave 3 #B2-38",$0 - $9,Cantonese/Hong Kong,2.5,1.36926,103.849189,4.5,6
191,Aster Pau,"AMK Hub, 53 Ang Mo Kio Ave 3 #B2-38",$0 - $9,Cantonese/Hong Kong,2.5,1.36926,103.849189,4.5,7
203,Atlantic Mix Grill,"Suntec City Mall, 3 Temasek Boulevard #03-006",$11 - $20,Middle Eastern/Mediterranean,3.5,1.293422,103.856858,15.5,10
203,Atlantic Mix Grill,"Suntec City Mall, 3 Temasek Boulevard #03-006",$11 - $20,Middle Eastern/Mediterranean,3.5,1.293422,103.856858,15.5,11
205,Atlas Coffeehouse,6 Duke&#39;s Road,$11 - $20,English,4.0,1.281102,103.834189,15.5,31
206,atout,40C Harding Road,$81 - $150,"French, European",3.5,1.30585,103.813498,115.5,18
206,atout,40C Harding Road,$81 - $150,"French, European",3.5,1.30585,103.813498,115.5,28
207,Attica,"Clarke Quay, 3A River Valley Road #01-03",$31 - $50,Multi-Cuisine,3.5,1.29003,103.844764,40.5,1
208,Auntie Anne&#39;s,"Great World City, 1 Kim Seng Promenade #01-K2",$0 - $9,American,4.0,1.293902,103.831787,4.5,16
211,Awfully Chocolate,131 East Coast Road,$0 - $9,Fusion,4.0,1.306185,103.90496,4.5,21
213,Awfully Chocolate,"VivoCity, 1 Harbourfront Walk #01-156",$0 - $9,French,4.0,1.263928,103.822229,4.5,18
216,Ayam Penyet - Canteen 2,"NTU, Blk 41 Students Walk (Hall of Residence 2)",$0 - $9,Malay,3.5,1.348464,103.684201,4.5,9
217,Ayam Penyet Ria,"Far East Plaza, 14 Scotts Road #05-22",$0 - $9,Indonesian,3.5,1.307079,103.833146,4.5,33
218,Ayam Penyet Ria,"Lucky Plaza, 304 Orchard Road #01-042/047",$0 - $9,Indonesian,4.0,1.30459,103.83407,4.5,33
219,Ayza&#39;s Cafe,"Beauty World Centre, 144 Upper Bukit Timah Road #04-18",$0 - $9,"Indian, Singaporean",3.5,1.342492,103.776647,4.5,20
219,Ayza&#39;s Cafe,"Beauty World Centre, 144 Upper Bukit Timah Road #04-18",$0 - $9,"Indian, Singaporean",3.5,1.342492,103.776647,4.5,4
220,Azmaya Honten,"Cuppage Plaza, 5 Koek Road #03-24 to 28",$31 - $50,Japanese,3.5,1.301983,103.840726,40.5,24
221,Azmaya,30 Robertson Quay #01-12/13,$21 - $30,Japanese,4.0,1.291277,103.841351,25.5,24
222,Azucar,345 Beach Road,$21 - $30,"Spanish, Italian, Middle Eastern/Mediterranean, European, Fusion",3.5,1.301474,103.861656,25.5,34
222,Azucar,345 Beach Road,$21 - $30,"Spanish, Italian, Middle Eastern/Mediterranean, European, Fusion",3.5,1.301474,103.861656,25.5,19
222,Azucar,345 Beach Road,$21 - $30,"Spanish, Italian, Middle Eastern/Mediterranean, European, Fusion",3.5,1.301474,103.861656,25.5,10
222,Azucar,345 Beach Road,$21 - $30,"Spanish, Italian, Middle Eastern/Mediterranean, European, Fusion",3.5,1.301474,103.861656,25.5,11
222,Azucar,345 Beach Road,$21 - $30,"Spanish, Italian, Middle Eastern/Mediterranean, European, Fusion",3.5,1.301474,103.861656,25.5,28
222,Azucar,345 Beach Road,$21 - $30,"Spanish, Italian, Middle Eastern/Mediterranean, European, Fusion",3.5,1.301474,103.861656,25.5,21
223,Azur Restaurant,"Crowne Plaza Changi Airport, 75 Airport Boulevard Level 2",$31 - $50,Multi-Cuisine,3.5,1.35868,103.987947,40.5,1
224,Azzura Gelato Cafe,"Katong V, 30 East Coast Road #01-01/02",$11 - $20,Australian / New Zealand,3.5,1.30377,103.90291,15.5,29
224,Azzura Gelato Cafe,"Katong V, 30 East Coast Road #01-01/02",$11 - $20,Australian / New Zealand,3.5,1.30377,103.90291,15.5,30
225,B. Bakery,15 Bussorah St,$11 - $20,American,3.5,1.301233,103.860083,15.5,16
226,Ba Xian,"Tower Club, 9 Raffles Place #63",$21 - $30,Singaporean Chinese,3.5,1.283039,103.850918,25.5,15
227,Baan Khun Nai Authentic Thai Cuisine,"The Odeon Katong, 11 East Coast Road #01-22",$11 - $20,Thai,3.5,1.304685,103.901889,15.5,12
228,Baba Chews,86 East Coast Road #01-01 Katong Square,$21 - $30,"Peranakan / Nonya, Singaporean Chinese",3.5,1.30468,103.904727,25.5,13
228,Baba Chews,86 East Coast Road #01-01 Katong Square,$21 - $30,"Peranakan / Nonya, Singaporean Chinese",3.5,1.30468,103.904727,25.5,14
228,Baba Chews,86 East Coast Road #01-01 Katong Square,$21 - $30,"Peranakan / Nonya, Singaporean Chinese",3.5,1.30468,103.904727,25.5,15
229,Babalicious,"Marina Cove, 1000 East Coast Parkway, #01-02",$11 - $20,Peranakan / Nonya,3.5,1.301237,103.912956,15.5,13
229,Babalicious,"Marina Cove, 1000 East Coast Parkway, #01-02",$11 - $20,Peranakan / Nonya,3.5,1.301237,103.912956,15.5,14
230,Babette Restaurant &amp; Bar,"Parc Sovereign Hotel,165 Tyrwhitt Road",$11 - $20,"French, European, Japanese",4.0,1.303595,103.851183,15.5,18
230,Babette Restaurant &amp; Bar,"Parc Sovereign Hotel,165 Tyrwhitt Road",$11 - $20,"French, European, Japanese",4.0,1.303595,103.851183,15.5,28
230,Babette Restaurant &amp; Bar,"Parc Sovereign Hotel,165 Tyrwhitt Road",$11 - $20,"French, European, Japanese",4.0,1.303595,103.851183,15.5,24
232,Badoque Caf&#233;,296 Upper Thomson Road,$11 - $20,"Fusion, Multi-Cuisine",3.5,1.353041,103.835133,15.5,21
232,Badoque Caf&#233;,296 Upper Thomson Road,$11 - $20,"Fusion, Multi-Cuisine",3.5,1.353041,103.835133,15.5,1
233,Bai Nian,"Albert Centre Market &amp; Food Centre, 270 Queen St #01-58",$0 - $9,"Singaporean, Chinese",3.5,1.345614,103.944627,4.5,4
233,Bai Nian,"Albert Centre Market &amp; Food Centre, 270 Queen St #01-58",$0 - $9,"Singaporean, Chinese",3.5,1.345614,103.944627,4.5,5
234,Baikohken Ramen,"KINEX, 11 Tanjong Katong Road #01-67/68",$11 - $20,Japanese,3.5,1.314639,103.894692,15.5,24
235,Baja Fresh,"Rendezvous Gallery, 9 Bras Basah Road, #01-03",$11 - $20,Mexican,3.5,1.298583,103.849316,15.5,35
236,BAKE Cheese Tart,"ION Orchard, #B4-33, 2 Orchard",$0 - $9,Japanese,3.5,1.304082,103.832016,4.5,24
240,Baker &amp; Cook,77 Hillcrest Road,$11 - $20,European,4.0,1.331606,103.807506,15.5,28
242,Baker &amp; Cook,"Chip Bee Gardens, 44 Jalan Merah Saga #01-56",$11 - $20,European,3.5,1.311753,103.796821,15.5,28
246,Baker&#39;s Oven Pattisieries,"SPC Bukit Panjang, 41 Bukit Panjang Ring Road",$11 - $20,Portuguese,4.0,1.383383,103.772722,15.5,36
249,Bakery &amp; Bar St Marc,"Parkland Green, 920 East Coast Parkway #01-09/10",$11 - $20,Japanese,3.5,1.299244,103.906579,15.5,24
250,Bakery Cuisine,"Sembawang Shopping Centre, 604 Sembawang Road #B1-19",$0 - $9,Japanese,3.5,1.441732,103.824813,4.5,24
256,Balaclava,"Suntec City, North Wing, 3 Temasek Boulevard #01-434",$11 - $20,Fusion,3.5,1.293422,103.856858,15.5,21
257,BALIthai,"West Mall, 1 Bukit Batok Central Link #03-03",$21 - $30,"Thai, Indonesian",3.5,1.350024,103.749229,25.5,12
257,BALIthai,"West Mall, 1 Bukit Batok Central Link #03-03",$21 - $30,"Thai, Indonesian",3.5,1.350024,103.749229,25.5,33
258,BALIthai,"I12 Katong, 112 East Coast Road #02-11",$21 - $30,"Thai, Indonesian",4.0,1.305462,103.904652,25.5,12
258,BALIthai,"I12 Katong, 112 East Coast Road #02-11",$21 - $30,"Thai, Indonesian",4.0,1.305462,103.904652,25.5,33
259,BALIthai,"Nex, 23 Serangoon Central #02-13",$21 - $30,"Thai, Indonesian",3.5,1.351221,103.872292,25.5,12
259,BALIthai,"Nex, 23 Serangoon Central #02-13",$21 - $30,"Thai, Indonesian",3.5,1.351221,103.872292,25.5,33
261,Ban Heng,"Orchard Central, 181 Orchard Road #11-01/02",$51 - $80,"Cantonese/Hong Kong, Teochew",3.5,1.300813,103.839903,65.5,6
261,Ban Heng,"Orchard Central, 181 Orchard Road #11-01/02",$51 - $80,"Cantonese/Hong Kong, Teochew",3.5,1.300813,103.839903,65.5,7
261,Ban Heng,"Orchard Central, 181 Orchard Road #11-01/02",$51 - $80,"Cantonese/Hong Kong, Teochew",3.5,1.300813,103.839903,65.5,8
262,Ban Heng,"Harbourfront Centre, 1 Maritime Square #04-01/02",$51 - $80,"Cantonese/Hong Kong, Teochew",3.5,1.264621,103.820249,65.5,6
262,Ban Heng,"Harbourfront Centre, 1 Maritime Square #04-01/02",$51 - $80,"Cantonese/Hong Kong, Teochew",3.5,1.264621,103.820249,65.5,7
262,Ban Heng,"Harbourfront Centre, 1 Maritime Square #04-01/02",$51 - $80,"Cantonese/Hong Kong, Teochew",3.5,1.264621,103.820249,65.5,8
264,Ban Mian . Fish . Seafood Soup - Kopitiam,"NUH Main Building 1, 5 Lower Kent Ridge Road, Kopitiam",$0 - $9,Singaporean,3.5,1.29645,103.78285,4.5,4
265,Ban Mian / Fish Soup,"Nanyang Polytechnic, 180 Ang Mo Kio Ave 8 (North Canteen)",$0 - $9,"Singaporean, Chinese",3.5,1.380099,103.849099,4.5,4
265,Ban Mian / Fish Soup,"Nanyang Polytechnic, 180 Ang Mo Kio Ave 8 (North Canteen)",$0 - $9,"Singaporean, Chinese",3.5,1.380099,103.849099,4.5,5
268,Ban Mian - Fountain Food Terrace,"Suntec City Mall, 3 Temasek Boulevard #B1-024/025/045 (Fountain Food Terrace)",$0 - $9,Singaporean,3.5,1.293422,103.856858,4.5,4
269,Ban Mian - Kopitiam,"IMM, 2 Jurong East St 21 #02-69",$0 - $9,"Singaporean, Chinese",3.5,1.347118,103.728632,4.5,4
269,Ban Mian - Kopitiam,"IMM, 2 Jurong East St 21 #02-69",$0 - $9,"Singaporean, Chinese",3.5,1.347118,103.728632,4.5,5
270,Ban Mian - Koufu,"Loyang Point, Blk 258 Pasir Ris St 21 #02-313",$0 - $9,"Singaporean, Chinese",3.5,1.367093,103.964772,4.5,4
270,Ban Mian - Koufu,"Loyang Point, Blk 258 Pasir Ris St 21 #02-313",$0 - $9,"Singaporean, Chinese",3.5,1.367093,103.964772,4.5,5
274,Bangkok Jam,"Plaza Singapura, 68 Orchard Road #03-85",$31 - $50,Thai,3.0,1.300005,103.844626,40.5,12
275,Bangkok Jam,"Jem, 50 Jurong Gateway Road #03-21",$31 - $50,Thai,3.0,1.333169,103.743536,40.5,12
276,Bangkok Jam,"Wheelock Place, 501 Orchard Road #02-04/05",$31 - $50,Thai,3.5,1.304811,103.831198,40.5,12
277,Bao Luo Wan Xiang - Kopitiam,"Manulife Centre, 51 Bras Basah Road #01-03",$0 - $9,"Cantonese/Hong Kong, Chinese",3.5,1.297855,103.850276,4.5,6
277,Bao Luo Wan Xiang - Kopitiam,"Manulife Centre, 51 Bras Basah Road #01-03",$0 - $9,"Cantonese/Hong Kong, Chinese",3.5,1.297855,103.850276,4.5,7
277,Bao Luo Wan Xiang - Kopitiam,"Manulife Centre, 51 Bras Basah Road #01-03",$0 - $9,"Cantonese/Hong Kong, Chinese",3.5,1.297855,103.850276,4.5,5
279,Bar Bar Black Sheep,86 Robertson Quay,$21 - $30,"Japanese, Indian",3.5,1.289982,103.837328,25.5,24
279,Bar Bar Black Sheep,86 Robertson Quay,$21 - $30,"Japanese, Indian",3.5,1.289982,103.837328,25.5,20
284,Bariuma,"United Square, 101 Thomson Road, #B1-08",$21 - $30,Japanese,3.5,1.316866,103.84377,25.5,24
285,Basilico,"Regent Singapore, 1 Cuscaden Road",$31 - $50,"Italian, Middle Eastern/Mediterranean, European",4.0,1.304976,103.825429,40.5,19
285,Basilico,"Regent Singapore, 1 Cuscaden Road",$31 - $50,"Italian, Middle Eastern/Mediterranean, European",4.0,1.304976,103.825429,40.5,10
285,Basilico,"Regent Singapore, 1 Cuscaden Road",$31 - $50,"Italian, Middle Eastern/Mediterranean, European",4.0,1.304976,103.825429,40.5,11
285,Basilico,"Regent Singapore, 1 Cuscaden Road",$31 - $50,"Italian, Middle Eastern/Mediterranean, European",4.0,1.304976,103.825429,40.5,28
286,Basilico,"Regent Singapore, 1 Cuscaden Road",$51 - $80,Italian,4.0,1.304976,103.825429,65.5,19
290,Baskin Robbins,"Tiong Bahru Plaza, 302 Tiong Bahru Road #01-07",$0 - $9,American,4.0,1.28643,103.827693,4.5,16
291,Basque Kitchen by Aitor,97 Amoy Street,$81 - $150,European,3.5,1.281457,103.84719,115.5,28
292,Bay Sushi,"Marina Bay Sands, 10 Bayfront Avenue #B2-01B (The Shoppes)",$31 - $50,Japanese,3.5,1.283697,103.860723,40.5,24
294,BBQ Chicken,"The Central, 6 Eu Tong Sen St #01-58",$0 - $9,Korean,3.5,1.28878,103.846236,4.5,2
295,BBQ Chicken,"West Coast Plaza, 154 West Coast Road #02-45",$0 - $9,Korean,3.5,1.303708,103.766401,4.5,2
297,BBQ Chicken,"Northpoint, 930 Yishun Ave 2  #B2-17/20",$0 - $9,Korean,3.5,1.42846,103.836099,4.5,2
300,BBQ Wholesale Centre,81 Frankel Avenue,$11 - $20,"Malay, Singaporean",4.5,1.31522,103.919125,15.5,9
300,BBQ Wholesale Centre,81 Frankel Avenue,$11 - $20,"Malay, Singaporean",4.5,1.31522,103.919125,15.5,4
302,Beach Culture Watercross,"Pasir Ris Park, 131 Pasir Ris Road",$21 - $30,European,3.5,1.385583,103.943738,25.5,28
303,Beach Road Kitchen,"JW Marriott Singapore South Beach, 30 Beach Road",$81 - $150,Multi-Cuisine,3.5,1.294001,103.85592,115.5,1
306,Beans &amp; Cream,Blk 347 Bukit Batok St 34 #01-260,$0 - $9,"Singaporean, Singaporean Western",4.0,1.36252,103.751375,4.5,4
306,Beans &amp; Cream,Blk 347 Bukit Batok St 34 #01-260,$0 - $9,"Singaporean, Singaporean Western",4.0,1.36252,103.751375,4.5,23
307,Bear Baby Spicy Fragrant Pot,"602B Tampines Ave 9, Stall 2",$11 - $20,Sichuan,3.5,1.361361,103.93766,15.5,37
308,Bear Bites,"MDIS Campus, 501 Stirling Road",$0 - $9,Taiwanese,3.5,1.297502,103.800544,4.5,17
309,Bear Paw,"Jurong Point, 1 Jurong West Central 2 #01-17H (JP1)",$0 - $9,Taiwanese,3.5,1.322669,103.720709,4.5,17
310,Beard Papa&#39;s,"Nex, 23 Serangoon Central #03-K15",$0 - $9,Japanese,4.0,1.351221,103.872292,4.5,24
311,Beast &amp; Butterflies,90 Robertson Quay,$31 - $50,"Western Variety, Asian Variety",3.5,1.290326,103.83686,40.5,38
311,Beast &amp; Butterflies,90 Robertson Quay,$31 - $50,"Western Variety, Asian Variety",3.5,1.290326,103.83686,40.5,0
312,Beast &amp; Butterflies,90 Robertson Quay,$51 - $80,Multi-Cuisine,3.5,1.290326,103.83686,65.5,1
314,Beaver&#39;s Pub and Grill,33 Liang Seah St #01-01/02,$11 - $20,American,3.0,1.298229,103.856056,15.5,16
315,Bebek Goreng Pak Ndut,"304 Orchard Road, #01-42/43/44 Lucky Plaza",$0 - $9,Indonesian,3.5,1.30429,103.834036,4.5,33
316,Becasse,10 Dempsey Road #01-21,$11 - $20,"French, Middle Eastern/Mediterranean, European",3.5,1.303287,103.810502,15.5,18
316,Becasse,10 Dempsey Road #01-21,$11 - $20,"French, Middle Eastern/Mediterranean, European",3.5,1.303287,103.810502,15.5,10
316,Becasse,10 Dempsey Road #01-21,$11 - $20,"French, Middle Eastern/Mediterranean, European",3.5,1.303287,103.810502,15.5,11
316,Becasse,10 Dempsey Road #01-21,$11 - $20,"French, Middle Eastern/Mediterranean, European",3.5,1.303287,103.810502,15.5,28
317,Bedok 456 Mee Hoon Kway,"Kim Keat Palm Market &amp; Food Centre, Blk 22 Lorong 7 Toa Payoh #01-46",$0 - $9,"Singaporean, Chinese",3.5,1.335532,103.85695,4.5,4
317,Bedok 456 Mee Hoon Kway,"Kim Keat Palm Market &amp; Food Centre, Blk 22 Lorong 7 Toa Payoh #01-46",$0 - $9,"Singaporean, Chinese",3.5,1.335532,103.85695,4.5,5
318,Bedok Chwee Kueh,"Bedok Interchange Hawker Centre, 208 New Upper Changi Road, #01-19",$0 - $9,Singaporean Chinese,3.5,1.324614,103.930571,4.5,15
319,Bedok North 85 Fried Oysters,"Kovan Hougang Market &amp; Food Centre, 209 Hougang St 21 #01-30",$0 - $9,Singaporean,3.5,1.359155,103.885976,4.5,4
324,Bee Heong Palace Restaurant,218 Bedok North Street 1 #01-01,$31 - $50,"Fujian/Heng Hwa, Chinese",3.5,1.327345,103.933787,40.5,26
324,Bee Heong Palace Restaurant,218 Bedok North Street 1 #01-01,$31 - $50,"Fujian/Heng Hwa, Chinese",3.5,1.327345,103.933787,40.5,27
324,Bee Heong Palace Restaurant,218 Bedok North Street 1 #01-01,$31 - $50,"Fujian/Heng Hwa, Chinese",3.5,1.327345,103.933787,40.5,5
325,Bee Kee Cooked Food,"Chong Pang Market &amp; Food Centre, 104/105 Yishun Ring Road #01-144",$0 - $9,Singaporean,3.5,1.431778,103.825807,4.5,4
326,Beer Market,"The Foundry, 3B River Valley Road #01-17/02-02",$21 - $30,Multi-Cuisine,4.0,1.290312,103.846721,25.5,1
327,Beirut,72 Bussorah Street,$31 - $50,Middle Eastern/Mediterranean,3.5,1.300815,103.859957,40.5,10
327,Beirut,72 Bussorah Street,$31 - $50,Middle Eastern/Mediterranean,3.5,1.300815,103.859957,40.5,11
328,Bel Mondo,"Millenia Walk, 9 Raffles Boulevard #01-09",$11 - $20,"Italian, Middle Eastern/Mediterranean",3.5,1.292083,103.859414,15.5,19
328,Bel Mondo,"Millenia Walk, 9 Raffles Boulevard #01-09",$11 - $20,"Italian, Middle Eastern/Mediterranean",3.5,1.292083,103.859414,15.5,10
328,Bel Mondo,"Millenia Walk, 9 Raffles Boulevard #01-09",$11 - $20,"Italian, Middle Eastern/Mediterranean",3.5,1.292083,103.859414,15.5,11
329,Bella Pasta,"Riverside View, 30 Robertson Quay, #01-09",$51 - $80,Italian,3.5,1.291277,103.841351,65.5,19
330,Bella Pizza,"Riverside Village Residences, 30 Robertson Quay #01-14",$21 - $30,Italian,4.0,1.29112,103.84114,25.5,19
331,belle-ville Pancake Cafe,"Square 2, 10 Sinaran Drive, #01-152 to 154",$0 - $9,Japanese,3.5,1.320635,103.844326,4.5,24
335,Bengawan Solo,"Anchorpoint, 370 Alexandra Road #B1-45",$0 - $9,Peranakan / Nonya,3.5,1.28871,103.805077,4.5,13
335,Bengawan Solo,"Anchorpoint, 370 Alexandra Road #B1-45",$0 - $9,Peranakan / Nonya,3.5,1.28871,103.805077,4.5,14
336,Bengawan Solo,"West Mall, 1 Bukit Batok Central Link #B1-02",$0 - $9,Peranakan / Nonya,4.0,1.350024,103.749229,4.5,13
336,Bengawan Solo,"West Mall, 1 Bukit Batok Central Link #B1-02",$0 - $9,Peranakan / Nonya,4.0,1.350024,103.749229,4.5,14
337,Bengawan Solo,"Changi Airport Terminal 3, 65 Airport Boulevard #02-MN-52 (Departure Check In Hall)",$0 - $9,Peranakan / Nonya,3.5,1.353943,103.985131,4.5,13
337,Bengawan Solo,"Changi Airport Terminal 3, 65 Airport Boulevard #02-MN-52 (Departure Check In Hall)",$0 - $9,Peranakan / Nonya,3.5,1.353943,103.985131,4.5,14
338,Bengawan Solo,Blk 18 Tai Thong Crescent,$0 - $9,Peranakan / Nonya,3.5,1.329243,103.869642,4.5,13
338,Bengawan Solo,Blk 18 Tai Thong Crescent,$0 - $9,Peranakan / Nonya,3.5,1.329243,103.869642,4.5,14
340,Benjamin Browns Bistro &amp; Bakery,"Forum The Shopping Mall, 583 Orchard Road #01-20/21",$0 - $9,European,3.5,1.306024,103.828854,4.5,28
341,Benson Salted Duck Rice,"Blk 168, Toa Payoh Lorong 1 #01-1040",$0 - $9,Teochew,3.5,1.331866,103.843449,4.5,8
342,Benten Caf&#233;,"Jurong Point, 1 Jurong West Central 2 #03-20/20A/K4 (JP1)",$11 - $20,"Italian, Japanese, Fusion",4.0,1.322669,103.720709,15.5,19
342,Benten Caf&#233;,"Jurong Point, 1 Jurong West Central 2 #03-20/20A/K4 (JP1)",$11 - $20,"Italian, Japanese, Fusion",4.0,1.322669,103.720709,15.5,24
342,Benten Caf&#233;,"Jurong Point, 1 Jurong West Central 2 #03-20/20A/K4 (JP1)",$11 - $20,"Italian, Japanese, Fusion",4.0,1.322669,103.720709,15.5,21
343,Beppu Menkan Japanese Noodles ,"Tiong Bahru Plaza, 302 Tiong Bahru Road, #02-16/17/18",$11 - $20,Japanese,3.5,1.28643,103.827693,15.5,24
344,Bergs Gourmet Burgers,45 East Coast Road,$11 - $20,Australian / New Zealand,3.5,1.304997,103.902999,15.5,29
344,Bergs Gourmet Burgers,45 East Coast Road,$11 - $20,Australian / New Zealand,3.5,1.304997,103.902999,15.5,30
345,Berrylite,"One Raffles Place, 1 Raffles Place #B1-10",$0 - $9,Singaporean,4.0,1.28453,103.850971,4.5,4
347,Best Fries Forever,"Cathay Cineleisure Orchard, 8 Grange Road #B1-06",$0 - $9,American,3.5,1.301454,103.836467,4.5,16
348,Beverage,Blk 478 Tampines St 44,$0 - $9,Singaporean,3.5,1.389546,103.772988,4.5,4
357,Bibigo,"Suntec City Mall, East Wing, 3 Temasek Boulevard #B1-107",$11 - $20,Korean,3.5,1.293422,103.856858,15.5,2
358,Bibigo,"Nex, 23 Serangoon Central #03-08",$11 - $20,Korean,3.5,1.351221,103.872292,15.5,2
359,BiBiQiu,"The Central, 6 Eu Tong Sen St",$0 - $9,"Korean, Fusion",3.5,1.28878,103.846236,4.5,2
359,BiBiQiu,"The Central, 6 Eu Tong Sen St",$0 - $9,"Korean, Fusion",3.5,1.28878,103.846236,4.5,21
360,Big Bites - Kopitiam,"Tampines Mall, 4 Tampines Central 5 #04-27/29",$11 - $20,Indian,3.5,1.352645,103.94473,15.5,20
362,Big Mama Korean Food,2 Kim Tian Road,$31 - $50,Korean,3.5,1.28525,103.829252,40.5,2
363,Billy Bombers American Diner,"Jurong Point, 1 Jurong West Central 2 #02-20E (JP1)",$11 - $20,American,4.0,1.322669,103.720709,15.5,16
364,Bincho at Hua Bee,78 Moh Guan Terrace #01-19,$51 - $80,Japanese,3.5,1.283499,103.830404,65.5,24
366,Birds of a Feather,"115 Amoy Street, #01-01",$31 - $50,"Singaporean Western, Fusion",3.5,1.282247,103.847646,40.5,23
366,Birds of a Feather,"115 Amoy Street, #01-01",$31 - $50,"Singaporean Western, Fusion",3.5,1.282247,103.847646,40.5,21
368,Bishamon,"Bukit Panjang Plaza, 1 Jelebu Road #01-64/65",$11 - $20,Japanese,3.0,1.37956,103.764306,15.5,24
369,Bishamon,"Great World City, 1 Kim Seng Promenade #01-21B",$11 - $20,Japanese,3.5,1.293902,103.831787,15.5,24
370,Bismillah Biryani Restaurant,50 Dunlop Street,$0 - $9,Indian,2.5,1.305051,103.853694,4.5,20
371,Bistecca Tuscan Steakhouse,26 Mohamed Sultan Road,$51 - $80,"Italian, Middle Eastern/Mediterranean, European",4.5,1.293432,103.841182,65.5,19
371,Bistecca Tuscan Steakhouse,26 Mohamed Sultan Road,$51 - $80,"Italian, Middle Eastern/Mediterranean, European",4.5,1.293432,103.841182,65.5,10
371,Bistecca Tuscan Steakhouse,26 Mohamed Sultan Road,$51 - $80,"Italian, Middle Eastern/Mediterranean, European",4.5,1.293432,103.841182,65.5,11
371,Bistecca Tuscan Steakhouse,26 Mohamed Sultan Road,$51 - $80,"Italian, Middle Eastern/Mediterranean, European",4.5,1.293432,103.841182,65.5,28
373,Bistro du Vin,"Shaw Centre, 1 Scotts Road #01-14",$31 - $50,"French, Middle Eastern/Mediterranean, European",4.0,1.306359,103.831646,40.5,18
373,Bistro du Vin,"Shaw Centre, 1 Scotts Road #01-14",$31 - $50,"French, Middle Eastern/Mediterranean, European",4.0,1.306359,103.831646,40.5,10
373,Bistro du Vin,"Shaw Centre, 1 Scotts Road #01-14",$31 - $50,"French, Middle Eastern/Mediterranean, European",4.0,1.306359,103.831646,40.5,11
373,Bistro du Vin,"Shaw Centre, 1 Scotts Road #01-14",$31 - $50,"French, Middle Eastern/Mediterranean, European",4.0,1.306359,103.831646,40.5,28
374,Bistro du Vin,"Shaw Centre, 1 Scotts Road #01-14",$51 - $80,French,4.0,1.306359,103.831646,65.5,18
375,Bistroquet,"Alexandra Retail Centre, 460 Alexandra Road #02-20",$11 - $20,"French, Middle Eastern/Mediterranean, European",3.5,1.27393,103.801594,15.5,18
375,Bistroquet,"Alexandra Retail Centre, 460 Alexandra Road #02-20",$11 - $20,"French, Middle Eastern/Mediterranean, European",3.5,1.27393,103.801594,15.5,10
375,Bistroquet,"Alexandra Retail Centre, 460 Alexandra Road #02-20",$11 - $20,"French, Middle Eastern/Mediterranean, European",3.5,1.27393,103.801594,15.5,11
375,Bistroquet,"Alexandra Retail Centre, 460 Alexandra Road #02-20",$11 - $20,"French, Middle Eastern/Mediterranean, European",3.5,1.27393,103.801594,15.5,28
378,BJ&#39;s American Diner and Grill,312 Balestier Road #01-01,$21 - $30,American,4.0,1.323536,103.8524,25.5,16
380,Black Canyon Coffee,"The Connexis, 1 Fusionopolis Way #02-01/02",$11 - $20,"Thai, Fusion, Multi-Cuisine",4.0,1.299469,103.787506,15.5,12
380,Black Canyon Coffee,"The Connexis, 1 Fusionopolis Way #02-01/02",$11 - $20,"Thai, Fusion, Multi-Cuisine",4.0,1.299469,103.787506,15.5,21
380,Black Canyon Coffee,"The Connexis, 1 Fusionopolis Way #02-01/02",$11 - $20,"Thai, Fusion, Multi-Cuisine",4.0,1.299469,103.787506,15.5,1
383,Black Society,"VivoCity, 1 Harbourfront Walk #02-156/157",$21 - $30,Cantonese/Hong Kong,4.0,1.263928,103.822229,25.5,6
383,Black Society,"VivoCity, 1 Harbourfront Walk #02-156/157",$21 - $30,Cantonese/Hong Kong,4.0,1.263928,103.822229,25.5,7
384,Black &amp; White Dessert House,"Sembawang Shopping Centre, 604 Sembawang Road #B1-K3",$0 - $9,Taiwanese,3.5,1.441732,103.824813,4.5,17
385,BlackBall,"Bedok Mall, 311 New Upper Changi Road #01-03",$0 - $9,Taiwanese,3.5,1.324493,103.929484,4.5,17
386,BlackBall,"Bugis+, 201 Victoria St #01-14",$0 - $9,Taiwanese,3.5,1.300152,103.856221,4.5,17
387,BlackBall,"The Star Vista, 1 Vista Exchange Green #02-14/15",$0 - $9,Taiwanese,4.0,1.306871,103.78857,4.5,17
388,BlackBall,"IMM, 2 Jurong East St 21 #01-48",$0 - $9,Taiwanese,3.5,1.347118,103.728632,4.5,17
389,BlackBall,"Tampines 1, 10 Tampines Central 1 #02-K2",$0 - $9,Taiwanese,3.5,1.367228,103.928218,4.5,17
390,BlackBall,"Harbourfront Centre, 1 Maritime Square #02-01/02",$0 - $9,Taiwanese,3.5,1.264621,103.820249,4.5,17
391,Blanco Court Food Centre (3rd Storey),"51 Old Airport Road Food Centre &amp; Shopping Mall, 51 Old Airport Road #135",$0 - $9,Teochew,4.5,1.280455,103.844656,4.5,8
392,Blanco Court Prawn Mee,245 Beach Road,$0 - $9,Singaporean Chinese,3.5,1.300277,103.859569,4.5,15
393,Blanco Prawn Noodle House,235 Jalan Kayu,$0 - $9,Singaporean,3.5,1.396144,103.872821,4.5,4
394,Bliss Restaurant,"Cheng San Community Club, Blk 6 Ang Mo Kio St 53 #01-01",$0 - $9,European,3.5,1.36917,103.848432,4.5,28
395,Blisshouse,"The Central, 6 Eu Tong Sen St #03-21",$11 - $20,European,3.5,1.28878,103.846236,15.5,28
396,BlooiE&#39;s Roadhouse Bar &amp; Grill,"The Rail Mall, 426/428 Upper Bukit Timah Road",$11 - $20,American,4.0,1.359803,103.767623,15.5,16
397,BlooiE&#39;s Roadhouse Bar &amp; Grill,"Science Park II, 21 Science Park Rd #01-01 (The Aquarius)",$11 - $20,American,4.0,1.2877,103.781524,15.5,16
399,Blue Bali,"Singapore Botanic Gardens, House 1D Cluny Road Level 1",$31 - $50,Indonesian,4.0,1.314914,103.816051,40.5,33
400,Bobby&#39;s Restaurant and Bar,"Chijmes, 30 Victoria St #B1-07",$31 - $50,Multi-Cuisine,3.5,1.295136,103.851929,40.5,1
402,Bollywood Veggies Poison Ivy Bistro,"Bollywood Veggies, 100 Neo Tiew Road",$0 - $9,Indian,4.0,1.418068,103.717349,4.5,20
403,Bonchon,"Bugis+, 201 Victoria St #01-11",$21 - $30,Korean,3.5,1.300152,103.856221,25.5,2
404,Boneless Hainanese Chicken Rice,"Redhill Food Centre, Blk 85 Redhill Lane #01-23",$0 - $9,Hainanese,3.5,1.287312,103.818335,4.5,22
405,Bonta Italian Restaurant &amp; Bar,"UE Square, 207 River Valley Road #01-61 (River Wing)",$31 - $50,"Italian, Middle Eastern/Mediterranean, European",4.0,1.292042,103.842617,40.5,19
405,Bonta Italian Restaurant &amp; Bar,"UE Square, 207 River Valley Road #01-61 (River Wing)",$31 - $50,"Italian, Middle Eastern/Mediterranean, European",4.0,1.292042,103.842617,40.5,10
405,Bonta Italian Restaurant &amp; Bar,"UE Square, 207 River Valley Road #01-61 (River Wing)",$31 - $50,"Italian, Middle Eastern/Mediterranean, European",4.0,1.292042,103.842617,40.5,11
405,Bonta Italian Restaurant &amp; Bar,"UE Square, 207 River Valley Road #01-61 (River Wing)",$31 - $50,"Italian, Middle Eastern/Mediterranean, European",4.0,1.292042,103.842617,40.5,28
406,Boon Kee Wanton Noodle,"Clementi 448 Market &amp; Food Centre, Blk 448 Clementi Ave 3 #01-40",$0 - $9,Cantonese/Hong Kong,3.5,1.313335,103.764554,4.5,6
406,Boon Kee Wanton Noodle,"Clementi 448 Market &amp; Food Centre, Blk 448 Clementi Ave 3 #01-40",$0 - $9,Cantonese/Hong Kong,3.5,1.313335,103.764554,4.5,7
410,Boon Tong Kee,Blk 233 Ang Mo Kio Ave 3 #01-1194,$11 - $20,"Cantonese/Hong Kong, Hainanese",3.5,1.367579,103.836733,15.5,6
410,Boon Tong Kee,Blk 233 Ang Mo Kio Ave 3 #01-1194,$11 - $20,"Cantonese/Hong Kong, Hainanese",3.5,1.367579,103.836733,15.5,7
410,Boon Tong Kee,Blk 233 Ang Mo Kio Ave 3 #01-1194,$11 - $20,"Cantonese/Hong Kong, Hainanese",3.5,1.367579,103.836733,15.5,22
411,Boon Tong Kee,18 Cheong Chin Nam Road,$11 - $20,Cantonese/Hong Kong,3.5,1.343371,103.775077,15.5,6
411,Boon Tong Kee,18 Cheong Chin Nam Road,$11 - $20,Cantonese/Hong Kong,3.5,1.343371,103.775077,15.5,7
412,Boon Tong Kee,199 East Coast Road,$11 - $20,"Cantonese/Hong Kong, Hainanese",4.0,1.307274,103.906577,15.5,6
412,Boon Tong Kee,199 East Coast Road,$11 - $20,"Cantonese/Hong Kong, Hainanese",4.0,1.307274,103.906577,15.5,7
412,Boon Tong Kee,199 East Coast Road,$11 - $20,"Cantonese/Hong Kong, Hainanese",4.0,1.307274,103.906577,15.5,22
413,Boon Tong Kee,470 MacPherson Road,$11 - $20,"Cantonese/Hong Kong, Hainanese",4.5,1.331969,103.882778,15.5,6
413,Boon Tong Kee,470 MacPherson Road,$11 - $20,"Cantonese/Hong Kong, Hainanese",4.5,1.331969,103.882778,15.5,7
413,Boon Tong Kee,470 MacPherson Road,$11 - $20,"Cantonese/Hong Kong, Hainanese",4.5,1.331969,103.882778,15.5,22
414,Boon Tong Kee,425 River Valley Road,$11 - $20,Cantonese/Hong Kong,4.0,1.295101,103.829464,15.5,6
414,Boon Tong Kee,425 River Valley Road,$11 - $20,Cantonese/Hong Kong,4.0,1.295101,103.829464,15.5,7
415,Boon Tong Kee,Blk 34 Whampoa West #01-93,$11 - $20,"Cantonese/Hong Kong, Hainanese",3.5,1.31989,103.86245,15.5,6
415,Boon Tong Kee,Blk 34 Whampoa West #01-93,$11 - $20,"Cantonese/Hong Kong, Hainanese",3.5,1.31989,103.86245,15.5,7
415,Boon Tong Kee,Blk 34 Whampoa West #01-93,$11 - $20,"Cantonese/Hong Kong, Hainanese",3.5,1.31989,103.86245,15.5,22
416,Bornga,"The Star Vista, 1 Vista Exchange Green #02-24",$21 - $30,Korean,4.0,1.306871,103.78857,25.5,2
417,Bornga,"VivoCity, 1 Harbourfront Walk ##02-123/124",$21 - $30,Korean,3.0,1.263928,103.822229,25.5,2
418,Boruto,"Golden Castle Building, 80 South Bridge Road #01-01",$21 - $30,"Spanish, Japanese, Fusion",3.5,1.286809,103.847743,25.5,34
418,Boruto,"Golden Castle Building, 80 South Bridge Road #01-01",$21 - $30,"Spanish, Japanese, Fusion",3.5,1.286809,103.847743,25.5,24
418,Boruto,"Golden Castle Building, 80 South Bridge Road #01-01",$21 - $30,"Spanish, Japanese, Fusion",3.5,1.286809,103.847743,25.5,21
419,Botak Jones,Blk 181 Ang Mo Kio Ave 5,$0 - $9,American,3.5,1.37679,103.837146,4.5,16
420,Botak Jones,Blk 233 Bukit Batok East Ave 5 #01-53,$0 - $9,American,3.5,1.355386,103.868925,4.5,16
421,Botak Jones - Kopitiam,"National Youth Park, 121 Somerset Road",$0 - $9,American,3.5,1.300496,103.836578,4.5,16
422,Botak Jones,Blk 211 Toa Payoh Lorong 8 #01-01,$0 - $9,American,3.5,1.340425,103.853772,4.5,16
423,Botak&#39;s Favorites,"Food King Coffee House, Blk 233 Bukit Batok East Ave 5",$0 - $9,American,3.5,1.348704,103.75549,4.5,16
424,Botan Japanese Restaurant,"Far East Square, 36 Pekin St #01-01",$21 - $30,Japanese,3.5,1.283288,103.848191,25.5,24
425,Botejyu Yatai - Food Junction,"Junction 8, 9 Bishan Place #04-01",$0 - $9,Japanese,3.5,1.350045,103.848304,4.5,24
426,Bottura,"Suntec City Mall, Noth Wing, 3 Temasek Boulevard #02-472/473/474",$21 - $30,Italian,3.5,1.293422,103.856858,25.5,19
427,Brasserie Gavroche,66 Tras St,$31 - $50,"French, Middle Eastern/Mediterranean, European",3.5,1.277724,103.844094,40.5,18
427,Brasserie Gavroche,66 Tras St,$31 - $50,"French, Middle Eastern/Mediterranean, European",3.5,1.277724,103.844094,40.5,10
427,Brasserie Gavroche,66 Tras St,$31 - $50,"French, Middle Eastern/Mediterranean, European",3.5,1.277724,103.844094,40.5,11
427,Brasserie Gavroche,66 Tras St,$31 - $50,"French, Middle Eastern/Mediterranean, European",3.5,1.277724,103.844094,40.5,28
428,Brasserie Les Saveurs,"The St Regis Singapore, 29 Tanglin Road",$51 - $80,French,4.0,1.305758,103.826036,65.5,18
430,Bread &amp; Hearth,18 Keong Saik Road,$0 - $9,European,3.5,1.279948,103.841658,4.5,28
435,BreadTalk,"Bugis Junction, 200 Victoria Street, #B1-K28/29",$0 - $9,Singaporean,3.0,1.298508,103.855434,4.5,4
451,Breeks Cafe,"Ngee Ann City, 391 Orchard Road #05-10/11",$11 - $20,American,3.5,1.302664,103.834623,15.5,16
452,Brew &amp; Bar,6 Jalan Pari Burong,$11 - $20,Peranakan / Nonya,3.5,1.333485,103.948042,15.5,13
452,Brew &amp; Bar,6 Jalan Pari Burong,$11 - $20,Peranakan / Nonya,3.5,1.333485,103.948042,15.5,14
453,Brewerkz,"Riverside Point, 30 Merchant Road #01-05/06",$31 - $50,American,4.0,1.289315,103.844203,40.5,16
455,Bridge,31 Seah St,$21 - $30,French,3.5,1.296154,103.854832,25.5,18
456,Brizo Restaurant &amp; Bar,"Park Hotel Clarke Quay, 1 Unity St",$11 - $20,Multi-Cuisine,3.5,1.291546,103.842327,15.5,1
457,Brotzeit&#174; German Bier Bar &amp; Restaurant,"Raffles City Shopping Centre, 252 North Bridge Road #01-17",$21 - $30,German,4.0,1.293883,103.853502,25.5,39
458,Brotzeit&#174; German Bier Bar &amp; Restaurant,126 East Coast Road,$21 - $30,"German, European",3.5,1.305919,103.905228,25.5,39
458,Brotzeit&#174; German Bier Bar &amp; Restaurant,126 East Coast Road,$21 - $30,"German, European",3.5,1.305919,103.905228,25.5,28
459,Brotzeit&#174; German Bier Bar &amp; Restaurant,"313@Somerset, 313 Orchard Road #01-27",$21 - $30,German,4.0,1.301114,103.838872,25.5,39
460,Brotzeit&#174; German Bier Bar &amp; Restaurant,"VivoCity, 1 Harbourfront Walk #01-149-151",$21 - $30,"German, European",4.0,1.263928,103.822229,25.5,39
460,Brotzeit&#174; German Bier Bar &amp; Restaurant,"VivoCity, 1 Harbourfront Walk #01-149-151",$21 - $30,"German, European",4.0,1.263928,103.822229,25.5,28
462,Brunetti,"Tanglin Mall, 163 Tanglin Road #01-35",$11 - $20,Italian,3.5,1.304787,103.82383,15.5,19
463,Brussels Sprouts @ Big Splash,"Big Splash, 902 East Coast Parkway #01-27 (Block F)",$31 - $50,Belgian,3.5,1.297928,103.900372,40.5,3
464,Brussels Sprouts @ Robertson Quay,"The Pier at Robertson, 80 Mohamed Sultan Road #01-12",$31 - $50,Belgian,3.5,1.291494,103.840669,40.5,3
465,Brussels Sprouts @ Sentosa,"Quayside Isle, 31 Ocean Way #01-01",$31 - $50,Belgian,4.5,1.247233,103.842222,40.5,3
470,Buffet City,"Tanjong Pagar Community Centre, 101 Cantonment Road #01-04",$11 - $20,Multi-Cuisine,3.5,1.276279,103.841571,15.5,1
471,Buffet Town,"Raffles City Shopping Centre, 252 North Bridge Road #B1-44E",$21 - $30,Multi-Cuisine,4.0,1.293883,103.853502,25.5,1
473,Bukang Tuna,"Red Dot Traffic Building, 28 Maxwell Road #01-06",$21 - $30,Korean,3.5,1.278013,103.845326,25.5,2
475,Burger King,"Bukit Panjang Plaza, 1 Jelebu Road #01- 28",$0 - $9,American,3.5,1.37956,103.764306,4.5,16
476,Burger King,"Singapore Changi Airport, Terminal 1 #03-02",$0 - $9,American,3.5,1.26176,103.830712,4.5,16
477,Burger King,"Changi Airport Terminal 2, 60 Airport Boulevard #026-016 (Departure Check In Hall)",$0 - $9,American,3.5,1.35538,103.988358,4.5,16
478,Burger King,"Esplanade Xchange, 90 Bras Basah Rd #B1-27/28",$0 - $9,American,4.0,1.292859,103.855236,4.5,16
479,Burger King,"The Central, 6 Eu Tong Sen St #01-23/26",$0 - $9,American,4.0,1.28878,103.846236,4.5,16
480,Burger King,"Jem, 50 Jurong Gateway Road #B1-02",$0 - $9,American,3.5,1.333169,103.743536,4.5,16
481,Burger King,"IMM, 2 Jurong East St 21 #01-51",$0 - $9,American,3.5,1.347118,103.728632,4.5,16
482,Burger King,"Pasir Ris Sports Centre, 120 Pasir Ris Central, #01-11",$0 - $9,American,3.5,1.374087,103.951983,4.5,16
483,Burger King,"Income @ Raffles, 16 Collyer Quay #01-01/02",$0 - $9,American,3.5,1.284222,103.852367,4.5,16
484,Burger King,"Nex, 23 Serangoon Central #B2-50/51",$0 - $9,American,3.5,1.351221,103.872292,4.5,16
485,Burger King,"Cathay Cineleisure Orchard, 8 Grange Road #01-07",$0 - $9,American,3.5,1.301454,103.836467,4.5,16
486,Burger King,"Tampines North Community Club, 2 Tampines St 41 #01-02",$0 - $9,American,3.0,1.35984,103.94623,4.5,16
487,Burger King,"HDB Hub, 530 Toa Payoh Lorong 6 #01-05",$0 - $9,American,3.5,1.331922,103.848506,4.5,16
488,BurgerLabo,"Gillman Barracks, 41 Malan Road",$21 - $30,Singaporean Western,3.5,1.275358,103.804209,25.5,23
491,Burlamacco Ristorante,30 Stanley Street,$11 - $20,"Italian, Middle Eastern/Mediterranean, European",4.5,1.281013,103.848302,15.5,19
491,Burlamacco Ristorante,30 Stanley Street,$11 - $20,"Italian, Middle Eastern/Mediterranean, European",4.5,1.281013,103.848302,15.5,10
491,Burlamacco Ristorante,30 Stanley Street,$11 - $20,"Italian, Middle Eastern/Mediterranean, European",4.5,1.281013,103.848302,15.5,11
491,Burlamacco Ristorante,30 Stanley Street,$11 - $20,"Italian, Middle Eastern/Mediterranean, European",4.5,1.281013,103.848302,15.5,28
492,Burnt Ends,20 Teck Lim Road,$51 - $80,Multi-Cuisine,3.5,1.280557,103.841904,65.5,1
493,Burp Kitchen &amp; Bar,740 Bedok Reservoir Road #01-3165,$11 - $20,Fusion,3.5,1.338117,103.922639,15.5,21
494,Buta Ramen,"Far East Square, 137 Amoy St #01-04",$11 - $20,Japanese,3.5,1.283288,103.848191,15.5,24
497,Buttercake N Cream,Blk 106 Clementi St 12 #01-52,$11 - $20,"Italian, Middle Eastern/Mediterranean, European",3.5,1.353864,103.891122,15.5,19
497,Buttercake N Cream,Blk 106 Clementi St 12 #01-52,$11 - $20,"Italian, Middle Eastern/Mediterranean, European",3.5,1.353864,103.891122,15.5,10
497,Buttercake N Cream,Blk 106 Clementi St 12 #01-52,$11 - $20,"Italian, Middle Eastern/Mediterranean, European",3.5,1.353864,103.891122,15.5,11
497,Buttercake N Cream,Blk 106 Clementi St 12 #01-52,$11 - $20,"Italian, Middle Eastern/Mediterranean, European",3.5,1.353864,103.891122,15.5,28
500,Cafe 2000,"M Hotel, 81 Anson Road",$21 - $30,Multi-Cuisine,3.5,1.290778,103.839076,25.5,1
502,Cafe De Hong Kong,"Eastpac Building, 586 Balestier Road #01-01",$21 - $30,Cantonese/Hong Kong,4.0,1.326825,103.843357,25.5,6
502,Cafe De Hong Kong,"Eastpac Building, 586 Balestier Road #01-01",$21 - $30,Cantonese/Hong Kong,4.0,1.326825,103.843357,25.5,7
503,Cafe De Nicole’s Flower,"UNI Building, 224 Telok Kurau Road, #01-01",$11 - $20,Singaporean Western,3.5,1.311404,103.910834,15.5,23
504,Caf&#233; Epicurious,"The Quayside, 60 Robertson Quay #01-02",$11 - $20,"American, Fusion",3.5,1.290185,103.839111,15.5,16
504,Caf&#233; Epicurious,"The Quayside, 60 Robertson Quay #01-02",$11 - $20,"American, Fusion",3.5,1.290185,103.839111,15.5,21
505,Cafe Etc,203 Upper Thomson Rd,$31 - $50,Multi-Cuisine,3.5,1.351935,103.835152,40.5,1
506,Caf&#233; Iguana,"Riverside Point, 30 Merchant Road #01-03",$11 - $20,"Latin American/South American, Mexican",4.0,1.289315,103.844203,15.5,40
506,Caf&#233; Iguana,"Riverside Point, 30 Merchant Road #01-03",$11 - $20,"Latin American/South American, Mexican",4.0,1.289315,103.844203,15.5,41
506,Caf&#233; Iguana,"Riverside Point, 30 Merchant Road #01-03",$11 - $20,"Latin American/South American, Mexican",4.0,1.289315,103.844203,15.5,35
507,Cafe Insa-Dong,279 South Bridge Road,$0 - $9,Korean,3.0,1.281723,103.845225,4.5,2
508,Caf&#233;&amp;Meal MUJI,"Paragon, 290 Orchard Road #04-36",$0 - $9,"Japanese, Fusion",3.5,1.303628,103.835548,4.5,24
508,Caf&#233;&amp;Meal MUJI,"Paragon, 290 Orchard Road #04-36",$0 - $9,"Japanese, Fusion",3.5,1.303628,103.835548,4.5,21
509,Caf&#233; Melba,"Goodman Arts Centre, 90 Goodman Road #01-56 (Block N)",$31 - $50,Australian / New Zealand,3.5,1.303938,103.884968,40.5,29
509,Caf&#233; Melba,"Goodman Arts Centre, 90 Goodman Road #01-56 (Block N)",$31 - $50,Australian / New Zealand,3.5,1.303938,103.884968,40.5,30
511,Cafe Pal,43 Middle Rd,$11 - $20,Thai,3.0,1.29975,103.852152,15.5,12
512,Cafe Rouge,20 Baghdad Street,$11 - $20,French,3.5,1.301127,103.859811,15.5,18
513,Caf&#233; Swiss,"Swissotel The Stamford, 2 Stamford Rd Level 2",$21 - $30,"Swiss, European",4.0,1.293258,103.853383,25.5,42
513,Caf&#233; Swiss,"Swissotel The Stamford, 2 Stamford Rd Level 2",$21 - $30,"Swiss, European",4.0,1.293258,103.853383,25.5,28
514,Cafebiz,"Hotel Jen Tanglin Singapore, 1A Cuscaden Road (Lobby)",$51 - $80,Multi-Cuisine,4.0,1.304542,103.824807,65.5,1
515,Caffe B,"Marina Bay Sands, 2 Bayfront Avenue #B1-15 (The Shoppes)",$51 - $80,"Italian, Fusion",4.0,1.283697,103.860723,65.5,19
515,Caffe B,"Marina Bay Sands, 2 Bayfront Avenue #B1-15 (The Shoppes)",$51 - $80,"Italian, Fusion",4.0,1.283697,103.860723,65.5,21
516,Caffebene,"VivoCity, 1 HarbourFront Walk #02-150",$11 - $20,Korean,3.5,1.263928,103.822229,15.5,2
517,"Cai Yu Pian, Niu Rou, Xian Xia, Zha Jin He Fen","Yuhua Village Market &amp; Food Centre, Blk 254 Jurong East St 24 #01-14",$0 - $9,"Singaporean, Chinese",3.5,1.343492,103.737854,4.5,4
517,"Cai Yu Pian, Niu Rou, Xian Xia, Zha Jin He Fen","Yuhua Village Market &amp; Food Centre, Blk 254 Jurong East St 24 #01-14",$0 - $9,"Singaporean, Chinese",3.5,1.343492,103.737854,4.5,5
521,Cake Spade,83 Tanjong Pagar Road,$0 - $9,Western Variety,3.5,1.27781,103.843734,4.5,38
523,Cali Cafe,"Rochester Mall, 31 Rochester Drive #01-01",$21 - $30,American,3.5,1.305607,103.788051,25.5,16
524,California Pizza Kitchen,"Forum The Shopping Mall, 583 Orchard Road #01-42",$21 - $30,American,4.0,1.306024,103.828854,25.5,16
525,Campus Deli,"Ngee Ann Polytechnic, Blk 535 Clementi Road #01-13 (Blk 1, Atrium)",$0 - $9,Multi-Cuisine,3.0,1.33344,103.773862,4.5,1
526,Candlenut,17A Dempsey Road,$21 - $30,Peranakan / Nonya,4.0,1.305594,103.810379,25.5,13
526,Candlenut,17A Dempsey Road,$21 - $30,Peranakan / Nonya,4.0,1.305594,103.810379,25.5,14
529,Canopy Garden Dining &amp; Bar,"Bishan Park II, 1382 Ang Mo Kio Ave 1",$31 - $50,Western Variety,4.0,1.362481,103.847352,40.5,38
530,Canton Paradise,"Alexandra Retail Centre, 460 Alexandra Road #02-30",$11 - $20,Cantonese/Hong Kong,3.5,1.27393,103.801594,15.5,6
530,Canton Paradise,"Alexandra Retail Centre, 460 Alexandra Road #02-30",$11 - $20,Cantonese/Hong Kong,3.5,1.27393,103.801594,15.5,7
531,Canton Paradise,"AMK Hub, 53 Ang Mo Kio Ave 3 #B2-01/02",$11 - $20,Cantonese/Hong Kong,3.5,1.36926,103.849189,15.5,6
531,Canton Paradise,"AMK Hub, 53 Ang Mo Kio Ave 3 #B2-01/02",$11 - $20,Cantonese/Hong Kong,3.5,1.36926,103.849189,15.5,7
532,Canton Paradise,"Bedok Mall, 311 New Upper Changi Road #B2-10/11",$11 - $20,Cantonese/Hong Kong,3.5,1.324493,103.929484,15.5,6
532,Canton Paradise,"Bedok Mall, 311 New Upper Changi Road #B2-10/11",$11 - $20,Cantonese/Hong Kong,3.5,1.324493,103.929484,15.5,7
533,Canton Paradise,"The Star Vista, 1 Vista Exchange Green #B1-45/46",$11 - $20,Cantonese/Hong Kong,4.0,1.306871,103.78857,15.5,6
533,Canton Paradise,"The Star Vista, 1 Vista Exchange Green #B1-45/46",$11 - $20,Cantonese/Hong Kong,4.0,1.306871,103.78857,15.5,7
534,Canton Paradise,"JCube, 2 Jurong East Central 1 #02-09",$11 - $20,Cantonese/Hong Kong,3.5,1.333129,103.740221,15.5,6
534,Canton Paradise,"JCube, 2 Jurong East Central 1 #02-09",$11 - $20,Cantonese/Hong Kong,3.5,1.333129,103.740221,15.5,7
535,Canton Paradise,"I12 Katong, 112 East Coast Road #B1-15",$11 - $20,Cantonese/Hong Kong,4.0,1.305462,103.904652,15.5,6
535,Canton Paradise,"I12 Katong, 112 East Coast Road #B1-15",$11 - $20,Cantonese/Hong Kong,4.0,1.305462,103.904652,15.5,7
536,Cantonese Seng Kee Wanton Noodles,"ABC Brickworks Food Centre, Blk 6 Jalan Bukit Merah #01-111",$0 - $9,Cantonese/Hong Kong,3.5,1.286887,103.808075,4.5,6
536,Cantonese Seng Kee Wanton Noodles,"ABC Brickworks Food Centre, Blk 6 Jalan Bukit Merah #01-111",$0 - $9,Cantonese/Hong Kong,3.5,1.286887,103.808075,4.5,7
537,Capricciosa,"JCube, 2 Jurong East Central 1 #01-05",$11 - $20,"Italian, European",3.5,1.333129,103.740221,15.5,19
537,Capricciosa,"JCube, 2 Jurong East Central 1 #01-05",$11 - $20,"Italian, European",3.5,1.333129,103.740221,15.5,28
540,Careshop de Caf&#233;,"The Luzerne, 70 Bendemeer Road #01-05",$11 - $20,Japanese,3.0,1.316246,103.862595,15.5,24
541,Carne &amp; Caipirinha,"Sunset Way, Blk 106 Clementi St 12 #01-50",$51 - $80,Latin American/South American,3.5,1.32196,103.769586,65.5,40
541,Carne &amp; Caipirinha,"Sunset Way, Blk 106 Clementi St 12 #01-50",$51 - $80,Latin American/South American,3.5,1.32196,103.769586,65.5,41
542,Carnivore Brazilian Churrascaria,"Chijmes, 30 Victoria St #01-30",$51 - $80,Latin American/South American,4.0,1.295136,103.851929,65.5,40
542,Carnivore Brazilian Churrascaria,"Chijmes, 30 Victoria St #01-30",$51 - $80,Latin American/South American,4.0,1.295136,103.851929,65.5,41
543,Carnivore Brazilian Churrascaria,"Marina Bay Sands, 2 Bayfront Avenue #01-80 (The Shoppes)",$51 - $80,Latin American/South American,4.0,1.283697,103.860723,65.5,40
543,Carnivore Brazilian Churrascaria,"Marina Bay Sands, 2 Bayfront Avenue #01-80 (The Shoppes)",$51 - $80,Latin American/South American,4.0,1.283697,103.860723,65.5,41
545,Carousel,"25 Scotts Rd, Lobby Level, Royal Plaza on Scotts",$81 - $150,Multi-Cuisine,4.0,1.306944,103.831964,115.5,1
547,Carrara Cafe,"2 Jalan Bukit Merah, #01-5148",$11 - $20,Fusion,3.5,1.286964,103.806347,15.5,21
551,Casa Italia,"Jurong Point, 63 Jurong West Central 3 #03-32/33 (JP2)",$0 - $9,Italian,3.5,1.338894,103.705622,4.5,19
552,Casa Italia,"Bugis+, 201 Victoria St #01-07",$0 - $9,Italian,3.5,1.300152,103.856221,4.5,19
553,Casa Italia,"Causeway Point, 1 Woodlands Square #01-K04",$0 - $9,Italian,3.5,1.436185,103.785816,4.5,19
554,Casa Tartufo,"Forum The Shopping Mall, 583 Orchard Road #01-17",$31 - $50,"Italian, European",4.0,1.306024,103.828854,40.5,19
554,Casa Tartufo,"Forum The Shopping Mall, 583 Orchard Road #01-17",$31 - $50,"Italian, European",4.0,1.306024,103.828854,40.5,28
555,Casuarina Curry,136 Casuarina Road,$0 - $9,Indian,3.5,1.377159,103.828089,4.5,20
556,Cat Cafe Neko No Niwa,54A Boat Quay #02,$31 - $50,Multi-Cuisine,3.5,1.287151,103.849254,40.5,1
557,Catalunya,"The Fullerton Pavilion, 82 Collyer Quay",$31 - $50,Spanish,4.0,1.284828,103.853901,40.5,34
559,Causeway Bay Hong Kong Cafe,"The Centrepoint, 176 Orchard Road #01-105/106/107/110/111",$0 - $9,"Cantonese/Hong Kong, Chinese",3.0,1.301371,103.839735,4.5,6
559,Causeway Bay Hong Kong Cafe,"The Centrepoint, 176 Orchard Road #01-105/106/107/110/111",$0 - $9,"Cantonese/Hong Kong, Chinese",3.0,1.301371,103.839735,4.5,7
559,Causeway Bay Hong Kong Cafe,"The Centrepoint, 176 Orchard Road #01-105/106/107/110/111",$0 - $9,"Cantonese/Hong Kong, Chinese",3.0,1.301371,103.839735,4.5,5
571,Central Hong Kong Cafe,"Wheelock Place, 501 Orchard Road, #B2-01",$11 - $20,Cantonese/Hong Kong,3.5,1.304811,103.831198,15.5,6
571,Central Hong Kong Cafe,"Wheelock Place, 501 Orchard Road, #B2-01",$11 - $20,Cantonese/Hong Kong,3.5,1.304811,103.831198,15.5,7
572,Central Hong Kong Cafe,"VivoCity, 1 Harbourfront Walk #B2-13/14",$11 - $20,Cantonese/Hong Kong,3.5,1.263928,103.822229,15.5,6
572,Central Hong Kong Cafe,"VivoCity, 1 Harbourfront Walk #B2-13/14",$11 - $20,Cantonese/Hong Kong,3.5,1.263928,103.822229,15.5,7
575,Cha Cha Cha Mexican Restaurant,"Holland Village, 32 Lorong Mambong",$21 - $30,"Latin American/South American, Mexican",4.0,1.311803,103.796177,25.5,40
575,Cha Cha Cha Mexican Restaurant,"Holland Village, 32 Lorong Mambong",$21 - $30,"Latin American/South American, Mexican",4.0,1.311803,103.796177,25.5,41
575,Cha Cha Cha Mexican Restaurant,"Holland Village, 32 Lorong Mambong",$21 - $30,"Latin American/South American, Mexican",4.0,1.311803,103.796177,25.5,35
576,Chabuton,"313@Somerset, 313 Orchard Road #B2-01",$11 - $20,Japanese,3.5,1.301114,103.838872,15.5,24
581,Chan Chan Chan,"Ngee Ann City, 391 Orchard Road #B2 (Takashimaya Food Hall)",$0 - $9,Korean,3.5,1.302664,103.834623,4.5,2
582,Chang Cheng Chinese Mixed Vegetable Rice,"Causeway Point, 1 Woodlands Square #04-01/04",$0 - $9,Chinese,3.5,1.436185,103.785816,4.5,5
583,Chang Cheng Chinese Mixed Vegetable Rice,Blk 761 Yishun St 72 #01-338,$0 - $9,Chinese,3.5,1.425474,103.833219,4.5,5
584,Chang Cheng Qu Gu Chicken Rice,"Yong Xing Mian Jia Can Shi, 154 Bukit Batok St 11",$0 - $9,Singaporean Chinese,3.5,1.342762,103.76004,4.5,15
585,Chang Thai Authentic Thai Cuisine,Blk 151 Bishan St 11 #01-195,$11 - $20,Thai,3.5,1.345283,103.855659,15.5,12
586,Changi Village Carrot Cake,"Changi Village Hawker Centre, Blk 2/3 Changi Village Road, #01-13",$0 - $9,"Singaporean, Chinese",3.5,1.389658,103.988092,4.5,4
586,Changi Village Carrot Cake,"Changi Village Hawker Centre, Blk 2/3 Changi Village Road, #01-13",$0 - $9,"Singaporean, Chinese",3.5,1.389658,103.988092,4.5,5
587,Chao Yue Xuan Seafood Restaurant,"UE Square, 207 River Valley Road #01-51/54 (River Wing)",$31 - $50,Cantonese/Hong Kong,3.5,1.292042,103.842617,40.5,6
587,Chao Yue Xuan Seafood Restaurant,"UE Square, 207 River Valley Road #01-51/54 (River Wing)",$31 - $50,Cantonese/Hong Kong,3.5,1.292042,103.842617,40.5,7
589,Chapter 55,246 Jalan Kayu Road,$11 - $20,Italian,3.5,1.397833,103.873399,15.5,19
590,Char Casual Dining,393 Guillemard Road,$11 - $20,Cantonese/Hong Kong,3.5,1.311923,103.888294,15.5,6
590,Char Casual Dining,393 Guillemard Road,$11 - $20,Cantonese/Hong Kong,3.5,1.311923,103.888294,15.5,7
595,Char Restaurant,363 Jalan Besar,$11 - $20,Singaporean Chinese,3.5,1.312653,103.85955,15.5,15
597,Charcoal Thai,"Nex, 23 Serangoon Central #B1-30/31",$21 - $30,Thai,3.5,1.351221,103.872292,25.5,12
598,Charco&#39;s,Blk 608 Ang Mo Kio Ave 5,$21 - $30,Portuguese,3.5,1.378715,103.836939,25.5,36
599,Charisma D&#39; Venue,37 Joo Chiat Place,$11 - $20,Malay,3.5,1.313525,103.900541,15.5,9
602,Ch&#226;terais&#233;,"Westgate, 3 Gateway Drive #B2 (Isetan)",$0 - $9,Japanese,3.5,1.334461,103.742801,4.5,24
603,Ch&#226;terais&#233;,"ION Orchard, 2 Orchard Turn, #B4-45/46",$0 - $9,Japanese,3.5,1.304082,103.832016,4.5,24
604,Ch&#226;terais&#233;,"SingPost Centre, 10 Eunos Road 8, #01-134/135",$0 - $9,Japanese,3.5,1.318727,103.893851,4.5,24
605,Ch&#226;terais&#233;,"Northpoint City, 1 Northpoint Drive, #01-152",$0 - $9,Japanese,3.5,1.42846,103.836099,4.5,24
606,Chatime,"Novena Square Velocity, 238 Thomson Road #01-07",$0 - $9,Taiwanese,4.0,1.32044,103.843556,4.5,17
607,Chatime,"E!Hub, 1 Pasir Ris Close #02-101",$0 - $9,Taiwanese,4.0,1.377757,103.955297,4.5,17
612,Chef Yamashita,"Blk 1 Tanjong Pagar Plaza, #02-44",$0 - $9,Japanese,4.0,1.27482,103.842748,4.5,24
613,Chef&#39;s Noodle,"HarbourFront Centre, 1 Maritime Square #01-99/100",$11 - $20,Korean,3.5,1.264621,103.820249,15.5,2
616,Cheng Mun Chee Kee Pig Organ Soup,24 Foch Road,$0 - $9,Teochew,3.5,1.312222,103.860048,4.5,8
617,Che&#39;Rose Nasi Padang - 128 Choices Coffeeshop,Blk 128 Lorong 1 Toa Payoh #01-811,$0 - $9,Malay,3.5,1.337984,103.844307,4.5,9
618,Cherry Garden,"Marina Square, 5 Raffles Avenue",$31 - $50,Cantonese/Hong Kong,3.5,1.29178,103.857488,40.5,6
618,Cherry Garden,"Marina Square, 5 Raffles Avenue",$31 - $50,Cantonese/Hong Kong,3.5,1.29178,103.857488,40.5,7
619,Chew Kee Eating House,8 Upper Cross Street,$0 - $9,Cantonese/Hong Kong,4.0,1.283709,103.845619,4.5,6
619,Chew Kee Eating House,8 Upper Cross Street,$0 - $9,Cantonese/Hong Kong,4.0,1.283709,103.845619,4.5,7
626,Chicken Hotpot,"Westgate, 3 Gateway Drive #04-08",$11 - $20,Sichuan,3.5,1.334461,103.742801,15.5,37
627,Chicken Hotpot,"Nex, 23 Serangoon Central #02-17",$11 - $20,Sichuan,3.5,1.351221,103.872292,15.5,37
628,Chicken House,255 Upper Thomson Road,$0 - $9,Hainanese,4.0,1.353362,103.833558,4.5,22
633,Chicken Rice - Cantine,"Jurong Point, 1 Jurong West Central 2 #B1-42/43/44 (JP1)",$0 - $9,Hainanese,3.5,1.322669,103.720709,4.5,22
634,Chicken Rice- Food Junction Kitchen,"Sembawang Shopping Centre, 604 Sembawang Road #02-20",$0 - $9,"Singaporean, Hainanese, Chinese",3.5,1.441732,103.824813,4.5,4
634,Chicken Rice- Food Junction Kitchen,"Sembawang Shopping Centre, 604 Sembawang Road #02-20",$0 - $9,"Singaporean, Hainanese, Chinese",3.5,1.441732,103.824813,4.5,22
634,Chicken Rice- Food Junction Kitchen,"Sembawang Shopping Centre, 604 Sembawang Road #02-20",$0 - $9,"Singaporean, Hainanese, Chinese",3.5,1.441732,103.824813,4.5,5
635,Chicken Rice - Gek Poh Food Court,"Gek Poh Shopping Centre, 762 Jurong West St 75 #01-308",$0 - $9,"Singaporean, Chinese",3.5,1.348681,103.697808,4.5,4
635,Chicken Rice - Gek Poh Food Court,"Gek Poh Shopping Centre, 762 Jurong West St 75 #01-308",$0 - $9,"Singaporean, Chinese",3.5,1.348681,103.697808,4.5,5
638,Chicken Rice – North Canteen,"Nanyang Polytechnic,180 Ang Mo Kio Ave 8 (Blk E)",$0 - $9,"Singaporean, Chinese",3.5,1.380099,103.849099,4.5,4
638,Chicken Rice – North Canteen,"Nanyang Polytechnic,180 Ang Mo Kio Ave 8 (Blk E)",$0 - $9,"Singaporean, Chinese",3.5,1.380099,103.849099,4.5,5
640,Chicken Rice Stall - Tongseng Coffee Shop,496 North Bridge Road,$0 - $9,Singaporean,3.5,1.298486,103.855868,4.5,4
642,Chicken Up,"Jurong East MRT, 10 Jurong East St 12 #01-01",$21 - $30,Korean,3.5,1.333376,103.74186,25.5,2
643,Chicken Up,"Parkway Parade, 80 Marine Parade Road #01-10",$21 - $30,Korean,3.5,1.300837,103.9055,25.5,2
644,Chicken Up,"Buangkok Mrt, Blk 277C Compassvale Link #01-13 (Unit No.2A)",$21 - $30,Korean,3.5,1.381835,103.893915,25.5,2
645,Chicken Up,"Century Square, 2 Tampines Central 5 #01-44/45/46/47",$21 - $30,Korean,3.5,1.352179,103.943933,25.5,2
646,Chicken Up,48 Tanjong Pagar Road,$21 - $30,Korean,4.0,1.27928,103.843644,25.5,2
647,Chihuly Lounge,"The Ritz-Carlton Millenia Singapore, 7 Raffles Ave",$31 - $50,Multi-Cuisine,4.0,1.290534,103.860074,40.5,1
648,Chikuyotei,"InterContinental Singapore, 80 Middle Road, #01-01",$81 - $150,Japanese,4.5,1.298437,103.854991,115.5,24
649,Chikuyotei,"InterContinental Singapore, 80 Middle Road",$51 - $80,Japanese,4.5,1.298437,103.854991,65.5,24
650,Chili&#39;s,"JCube, 2 Jurong East Central 1 #03-10",$11 - $20,American,3.5,1.333129,103.740221,15.5,16
651,Chili&#39;s,"Resorts World Sentosa, 8 Sentosa Gateway (The Bull Ring)",$31 - $50,American,4.0,1.25218,103.824175,40.5,16
652,Chilli Padi Nonya Restaurant,11 Joo Chiat Place #01-03,$31 - $50,Peranakan / Nonya,3.5,1.313427,103.900076,40.5,13
652,Chilli Padi Nonya Restaurant,11 Joo Chiat Place #01-03,$31 - $50,Peranakan / Nonya,3.5,1.313427,103.900076,40.5,14
657,Chinese Cooked Food - The Business Park,"Temasek Polytechnic, Blk 26 21 Tampines Ave 1 #01-03",$0 - $9,Singaporean Chinese,3.5,1.34585,103.930232,4.5,15
658,Chinese Food,"Changi Airport Terminal 1, 80 Airport Boulevard (Canteen)",$0 - $9,Singaporean Chinese,3.5,1.362591,103.990648,4.5,15
659,Chinese Mixed Rice - Kopitiam,"Tiong Bahru Plaza, 302 Tiong Bahru Road, #03-01/02 &amp; 55",$0 - $9,Chinese,3.5,1.28643,103.827693,4.5,5
661,Chinta Manis,"King Albert Park, 11 King Albert Park #01-04",$0 - $9,Peranakan / Nonya,3.5,1.336909,103.779311,4.5,13
661,Chinta Manis,"King Albert Park, 11 King Albert Park #01-04",$0 - $9,Peranakan / Nonya,3.5,1.336909,103.779311,4.5,14
662,Chinta Manis,"Greenwich V, 1 Seletar Road #01-19",$0 - $9,Peranakan / Nonya,3.5,1.38754,103.86912,4.5,13
662,Chinta Manis,"Greenwich V, 1 Seletar Road #01-19",$0 - $9,Peranakan / Nonya,3.5,1.38754,103.86912,4.5,14
663,CHIPPY British Take Away,"Plaza Singapura, 68 Orchard Road #B2-38",$0 - $9,English,3.5,1.300005,103.844626,4.5,31
664,CHIPPY British Take Away,"Tampines 1, 10 Tampines Central 1 #B1-K6",$0 - $9,English,4.0,1.367228,103.928218,4.5,31
665,Chir Chir,"Chinatown Point, 133 New Bridge Road",$21 - $30,Korean,3.5,1.285849,103.84517,25.5,2
666,Chir Chir,"313@Somerset, 313 Orchard Road #B3-04/05/06",$21 - $30,Korean,3.5,1.301114,103.838872,25.5,2
667,Chiso Zanmai,"The Central, 6 Eu Tong Sen St #01-15",$21 - $30,Japanese,4.0,1.28878,103.846236,25.5,24
668,Chix A-Dish - Food Haven/Lawn,"Republic Polytechnic W4, Blk 37 Woodlands Ave 9 #01-10",$0 - $9,Malay,4.0,1.445259,103.785784,4.5,9
669,Cho Kee Noodle,Blk 186 Toa Payoh Central #01-402 (J99 Eating House),$0 - $9,"Singaporean, Chinese",3.5,1.332639,103.850229,4.5,4
669,Cho Kee Noodle,Blk 186 Toa Payoh Central #01-402 (J99 Eating House),$0 - $9,"Singaporean, Chinese",3.5,1.332639,103.850229,4.5,5
673,Chocz,"Esplanade Mall, 8 Raffles Avenue #02-13/15",$11 - $20,"Swiss, European",4.0,1.289509,103.855511,15.5,42
673,Chocz,"Esplanade Mall, 8 Raffles Avenue #02-13/15",$11 - $20,"Swiss, European",4.0,1.289509,103.855511,15.5,28
676,Chomp Chomp Satay,"Chomp Chomp Food Centre, 20 Kensington Park Road",$0 - $9,"Singaporean, Chinese",4.0,1.364233,103.866536,4.5,4
676,Chomp Chomp Satay,"Chomp Chomp Food Centre, 20 Kensington Park Road",$0 - $9,"Singaporean, Chinese",4.0,1.364233,103.866536,4.5,5
680,Chops,727 Ang Mo Kio Ave 6,$0 - $9,American,3.5,1.372946,103.846077,4.5,16
681,Chopsuey Cafe,10 Dempsey Road #01-23,$51 - $80,Fusion,3.5,1.303287,103.810502,65.5,21
682,Chor Huat Pu Tien Seafood Restaurant,528 Macpherson Road,$51 - $80,Fujian/Heng Hwa,3.5,1.332323,103.88435,65.5,26
682,Chor Huat Pu Tien Seafood Restaurant,528 Macpherson Road,$51 - $80,Fujian/Heng Hwa,3.5,1.332323,103.88435,65.5,27
683,Chotto Matte,54 Blair Road,$31 - $50,"European, Japanese, Fusion",3.5,1.27593,103.83566,40.5,28
683,Chotto Matte,54 Blair Road,$31 - $50,"European, Japanese, Fusion",3.5,1.27593,103.83566,40.5,24
683,Chotto Matte,54 Blair Road,$31 - $50,"European, Japanese, Fusion",3.5,1.27593,103.83566,40.5,21
684,Choupinette,607 Bukit Timah Road #01-01,$31 - $50,French,3.5,1.324258,103.809542,40.5,18
685,Choupinette,607 Bukit Timah Road #01-01,$21 - $30,French,3.5,1.324258,103.809542,25.5,18
686,CHOW FUN Bar &amp; Restaurant,"The Grandstand, 200 Turf Club Road #01-08",$11 - $20,"Japanese, Korean, Thai, Singaporean Western",3.5,1.338869,103.792986,15.5,24
686,CHOW FUN Bar &amp; Restaurant,"The Grandstand, 200 Turf Club Road #01-08",$11 - $20,"Japanese, Korean, Thai, Singaporean Western",3.5,1.338869,103.792986,15.5,2
686,CHOW FUN Bar &amp; Restaurant,"The Grandstand, 200 Turf Club Road #01-08",$11 - $20,"Japanese, Korean, Thai, Singaporean Western",3.5,1.338869,103.792986,15.5,12
686,CHOW FUN Bar &amp; Restaurant,"The Grandstand, 200 Turf Club Road #01-08",$11 - $20,"Japanese, Korean, Thai, Singaporean Western",3.5,1.338869,103.792986,15.5,23
687,Chuan Kee Satay,"51 Old Airport Road Food Centre &amp; Shopping Mall, 51 Old Airport Road #01-85",$0 - $9,Singaporean,4.5,1.280455,103.844656,4.5,4
688,Chuan Yi Pin,530 North Bridge Road #01-01,$11 - $20,Sichuan,3.5,1.298849,103.856125,15.5,37
689,Chuen Chuen Cafe,21 Tan Quee Lan St #01-01,$0 - $9,Hainanese,4.0,1.298586,103.856405,4.5,22
690,Chui Huay Lim Teochew Cuisine,"Chui Huay Lim Club, 190 Keng Lee Road #01-02",$31 - $50,Teochew,3.5,1.31409,103.841452,40.5,8
691,Chun Fa Wanton Noodle,57 Eng Hoon Street #01-88 (Tai Kwang Huat Coffee Shop),$0 - $9,"Singaporean, Chinese",3.5,1.284906,103.833292,4.5,4
691,Chun Fa Wanton Noodle,57 Eng Hoon Street #01-88 (Tai Kwang Huat Coffee Shop),$0 - $9,"Singaporean, Chinese",3.5,1.284906,103.833292,4.5,5
693,Churro101,"Bugis+, 201 Victoria Street #04-01",$0 - $9,Spanish,3.5,1.300152,103.856221,4.5,34
697,Ciao@,8 Haji Lane #01-01,$21 - $30,Italian,3.5,1.300474,103.859409,25.5,19
698,Cicada,"3C River Valley Road, #01-10",$31 - $50,"Asian Variety, Fusion",3.5,1.290312,103.846721,40.5,0
698,Cicada,"3C River Valley Road, #01-10",$31 - $50,"Asian Variety, Fusion",3.5,1.290312,103.846721,40.5,21
699,Ciel P&#226;tisserie,Blk 124 Hougang Ave 1 #01-1444,$11 - $20,French,3.5,1.28594,103.803512,15.5,18
700,Circa 1912,"Shaw Centre, 1 Scotts Road, #03-07/11",$21 - $30,Cantonese/Hong Kong,3.5,1.306359,103.831646,25.5,6
700,Circa 1912,"Shaw Centre, 1 Scotts Road, #03-07/11",$21 - $30,Cantonese/Hong Kong,3.5,1.306359,103.831646,25.5,7
701,Citrus By The Pool,"Woodlands Swimming Complex, 3 Woodlands Street 13",$11 - $20,Fusion,3.5,1.434862,103.77913,15.5,21
703,City Hot Pot,"One Raffles Place, 1 Raffles Place #04-28",$31 - $50,Chinese,3.5,1.28453,103.850971,40.5,5
706,Clinton Street Baking Company,31 Purvis St,$21 - $30,American,3.5,1.296324,103.855128,25.5,16
708,Coca Restaurant,"Kallang Leisure Park, 5 Stadium Walk #02-01",$51 - $80,Thai,3.5,1.302106,103.876429,65.5,12
709,Coco Ichibanya,"Westgate, 3 Gateway Drive Level 1",$11 - $20,Japanese,3.0,1.334461,103.742801,15.5,24
710,Coco Ichibanya,"313@Somerset, 313 Orchard Road #B3-25/27",$11 - $20,Japanese,4.0,1.301114,103.838872,15.5,24
712,Cocotte,2 Dickson Road,$31 - $50,"French, Middle Eastern/Mediterranean, European",3.5,1.305121,103.85463,40.5,18
712,Cocotte,2 Dickson Road,$31 - $50,"French, Middle Eastern/Mediterranean, European",3.5,1.305121,103.85463,40.5,10
712,Cocotte,2 Dickson Road,$31 - $50,"French, Middle Eastern/Mediterranean, European",3.5,1.305121,103.85463,40.5,11
712,Cocotte,2 Dickson Road,$31 - $50,"French, Middle Eastern/Mediterranean, European",3.5,1.305121,103.85463,40.5,28
714,Coffee Kaki,"AMK Hub, 53 Ang Mo Kio Ave 3 #B1-51C",$0 - $9,Singaporean Western,3.5,1.36926,103.849189,4.5,23
716,Coffee &amp; Toast,"Changi Airport Terminal 1, 80 Airport Boulevard (Departure Check-In Hall)",$0 - $9,"Thai, Singaporean",3.5,1.362591,103.990648,4.5,12
716,Coffee &amp; Toast,"Changi Airport Terminal 1, 80 Airport Boulevard (Departure Check-In Hall)",$0 - $9,"Thai, Singaporean",3.5,1.362591,103.990648,4.5,4
717,Coffeesmith,"Bedok Mall, 311, New Upper Changi Road, #01-78",$11 - $20,Korean,3.5,1.324493,103.929484,15.5,2
720,Collin&#39;s Grille,"Shaw Plaza, 360 Balestier Road #01-12",$21 - $30,Japanese,4.5,1.324917,103.850964,25.5,24
721,Collin&#39;s Grille,"Foodloft, Blk 159A Hougang St 11 #01-02",$21 - $30,Japanese,4.0,1.351519,103.879494,25.5,24
722,Collin&#39;s Grille,Blk 203 Toa Payoh North #01-1097,$21 - $30,Japanese,3.0,1.342042,103.849182,25.5,24
724,ComeBuy,190 Toa Payoh Lorong 6,$0 - $9,Taiwanese,4.0,1.332995,103.848325,4.5,17
726,Comnam Broken Rice,"Raffles City Shopping Centre, 252 North Bridge Road #B1-46/47",$11 - $20,Vietnamese,3.5,1.293883,103.853502,15.5,43
727,CONCETTO by saveur,"The Cathay, 2 Handy Road #01-11",$31 - $50,"Spanish, French",3.5,1.299052,103.84788,40.5,34
727,CONCETTO by saveur,"The Cathay, 2 Handy Road #01-11",$31 - $50,"Spanish, French",3.5,1.299052,103.84788,40.5,18
728,Congee / Hot Plate - Food Fare,"AMK Hub, 53 Ang Mo Kio Ave 3 #03-12",$0 - $9,Cantonese/Hong Kong,3.5,1.36926,103.849189,4.5,6
728,Congee / Hot Plate - Food Fare,"AMK Hub, 53 Ang Mo Kio Ave 3 #03-12",$0 - $9,Cantonese/Hong Kong,3.5,1.36926,103.849189,4.5,7
731,CoolPlay Soft Serve,Blk 85B Lorong 4 Toa Payoh #01-332B,$0 - $9,Taiwanese,3.5,1.336281,103.847881,4.5,17
732,Coriander,220 East Coast Road,$11 - $20,Fusion,3.5,1.307388,103.907423,15.5,21
733,Corner House,"Singapore Botanic Gardens, EJH Corner House, 1 Cluny Road",$51 - $80,Multi-Cuisine,3.5,1.314914,103.816051,65.5,1
734,Costa Coffee,"Valley Point, 491 River Valley Road",$0 - $9,English,3.5,1.29304,103.8269,4.5,31
735,Cove Stadium,"Quayside Isle, 31 Ocean Way #01-04 / 05",$31 - $50,American,4.0,1.247233,103.842222,40.5,16
736,Cozy Bistro &amp; Lounge,"2 Jalan Lokam, Kensington Square #01-51/52",$11 - $20,"Cantonese/Hong Kong, Multi-Cuisine",3.5,1.417993,103.70877,15.5,6
736,Cozy Bistro &amp; Lounge,"2 Jalan Lokam, Kensington Square #01-51/52",$11 - $20,"Cantonese/Hong Kong, Multi-Cuisine",3.5,1.417993,103.70877,15.5,7
736,Cozy Bistro &amp; Lounge,"2 Jalan Lokam, Kensington Square #01-51/52",$11 - $20,"Cantonese/Hong Kong, Multi-Cuisine",3.5,1.417993,103.70877,15.5,1
737,Craftholic meets Kki,"School Of The Arts Singapore, 1 Zubir Said Drive #02-01",$11 - $20,Japanese,3.5,1.299138,103.848425,15.5,24
739,Cream &amp; Custard,46 Jalan Bukit Ho Swee #01-894,$11 - $20,French,3.5,1.288296,103.826158,15.5,18
743,Creative Eateries Pte Ltd,211 Henderson Road #05-03,$21 - $30,"Western Variety, Japanese, Thai",3.5,1.281958,103.819617,25.5,38
743,Creative Eateries Pte Ltd,211 Henderson Road #05-03,$21 - $30,"Western Variety, Japanese, Thai",3.5,1.281958,103.819617,25.5,24
743,Creative Eateries Pte Ltd,211 Henderson Road #05-03,$21 - $30,"Western Variety, Japanese, Thai",3.5,1.281958,103.819617,25.5,12
747,Crystal Jade Golden Palace,"Paragon, 290 Orchard Road #05-22",$51 - $80,"Cantonese/Hong Kong, Teochew",4.0,1.303628,103.835548,65.5,6
747,Crystal Jade Golden Palace,"Paragon, 290 Orchard Road #05-22",$51 - $80,"Cantonese/Hong Kong, Teochew",4.0,1.303628,103.835548,65.5,7
747,Crystal Jade Golden Palace,"Paragon, 290 Orchard Road #05-22",$51 - $80,"Cantonese/Hong Kong, Teochew",4.0,1.303628,103.835548,65.5,8
748,Crystal Jade Jiang Nan,"VivoCity, 1 Harbourfront Walk #01-52",$11 - $20,Cantonese/Hong Kong,4.0,1.263928,103.822229,15.5,6
748,Crystal Jade Jiang Nan,"VivoCity, 1 Harbourfront Walk #01-52",$11 - $20,Cantonese/Hong Kong,4.0,1.263928,103.822229,15.5,7
749,Crystal Jade Kitchen,"Plaza Singapura, 68 Orchard Road #02-32",$11 - $20,Cantonese/Hong Kong,4.0,1.300005,103.844626,15.5,6
749,Crystal Jade Kitchen,"Plaza Singapura, 68 Orchard Road #02-32",$11 - $20,Cantonese/Hong Kong,4.0,1.300005,103.844626,15.5,7
750,Crystal Jade Kitchen,"Ngee Ann City, 391 Orchard Road #B2-38",$11 - $20,Cantonese/Hong Kong,3.5,1.302664,103.834623,15.5,6
750,Crystal Jade Kitchen,"Ngee Ann City, 391 Orchard Road #B2-38",$11 - $20,Cantonese/Hong Kong,3.5,1.302664,103.834623,15.5,7
751,Crystal Jade Kitchen,"Great World City, 1 Kim Seng Promenade #03-30",$11 - $20,Cantonese/Hong Kong,5.0,1.293902,103.831787,15.5,6
751,Crystal Jade Kitchen,"Great World City, 1 Kim Seng Promenade #03-30",$11 - $20,Cantonese/Hong Kong,5.0,1.293902,103.831787,15.5,7
752,Crystal Jade Kitchen,"Tampines Mall, 4 Tampines Central 5 #B1-11",$11 - $20,Cantonese/Hong Kong,3.5,1.352645,103.94473,15.5,6
752,Crystal Jade Kitchen,"Tampines Mall, 4 Tampines Central 5 #B1-11",$11 - $20,Cantonese/Hong Kong,3.5,1.352645,103.94473,15.5,7
753,Crystal Jade Kitchen,"Causeway Point, 1 Woodlands Square #05-10",$11 - $20,Cantonese/Hong Kong,4.0,1.436185,103.785816,15.5,6
753,Crystal Jade Kitchen,"Causeway Point, 1 Woodlands Square #05-10",$11 - $20,Cantonese/Hong Kong,4.0,1.436185,103.785816,15.5,7
754,Crystal Jade La Mian Xiao Long Bao,"Jurong Point JP2, 1 Jurong West Central 2 #03-96",$31 - $50,Shanghainese,4.0,1.339546,103.706107,40.5,32
755,Crystal Jade La Mian Xiao Long Bao,"Changi Airport Terminal 1, 80 Airport Boulevard, #03-54, Departure/Transit Lounge East Mezzanine Level 3",$21 - $30,Shanghainese,3.5,1.362591,103.990648,25.5,32
756,Crystal Jade La Mian Xiao Long Bao,"Holland Village, 241 Holland Ave",$11 - $20,Shanghainese,4.0,1.311803,103.796177,15.5,32
757,Crystal Jade La Mian Xiao Long Bao,"Ngee Ann City, 391 Orchard Road #04-27",$11 - $20,Shanghainese,4.0,1.302664,103.834623,15.5,32
758,Crystal Jade La Mian Xiao Long Bao,"Great World City, 1 Kim Seng Promenade #02-43",$11 - $20,Shanghainese,3.5,1.293902,103.831787,15.5,32
759,Crystal Jade My Bread,"AMK Hub, 53 Ang Mo Kio Ave 3 #B1-48",$0 - $9,Cantonese/Hong Kong,3.5,1.36926,103.849189,4.5,6
759,Crystal Jade My Bread,"AMK Hub, 53 Ang Mo Kio Ave 3 #B1-48",$0 - $9,Cantonese/Hong Kong,3.5,1.36926,103.849189,4.5,7
760,Crystal Jade My Bread,"Singapore Changi Airport Terminal 3, 65 Airport Boulevard #B2-22",$0 - $9,Singaporean,4.0,1.356181,103.986372,4.5,4
765,Crystal Jade Prestige,"Marina Bay Link Mall, 8A Marina Boulevard, #02-01",$11 - $20,Cantonese/Hong Kong,3.5,1.281203,103.853251,15.5,6
765,Crystal Jade Prestige,"Marina Bay Link Mall, 8A Marina Boulevard, #02-01",$11 - $20,Cantonese/Hong Kong,3.5,1.281203,103.853251,15.5,7
766,Crystal Jade Viet Cafe,"Bugis+, 201 Victoria St #04-05",$11 - $20,Vietnamese,3.5,1.300152,103.856221,15.5,43
769,Curbside Cafe &amp; Wine Bar,"Nucleos, 21 Biopolis Drive #01-21",$11 - $20,American,3.5,1.301786,103.792123,15.5,16
770,CUT,"2 Bayfront Avenue, Marina Bay Sands #B1-71 (The Shoppes)",$151 - $300,European,3.5,1.285582,103.860111,225.5,28
774,Da Luca Italian Restaurant,"Goldhill Plaza, 1 Goldhill Plaza #01-1921",$21 - $30,Italian,4.0,1.318146,103.842805,25.5,19
775,Da Paolo Dempsey,"8 Dempsey Road, #01-13",$31 - $50,Italian,3.5,1.304128,103.809547,40.5,19
776,Dae Gweol,65 Tras Street,$21 - $30,Korean,3.5,1.277705,103.84447,25.5,2
777,Dae Ssik Sin,"Orchard Gateway, 277 Orchard Road #03-17",$11 - $20,Korean,3.5,1.301085,103.838988,15.5,2
778,Daehwa,"1 Fusionopolis Place, Galaxis Building, #01-35",$11 - $20,Korean,3.5,1.299157,103.788001,15.5,2
779,Daidomon Restaurant,"Keypoint, 371 Beach Road #01-18/19",$11 - $20,Japanese,3.5,1.302312,103.862348,15.5,24
780,Daikokuya Ramen Dining,"Paragon, 290 Orchard Road #B1-47",$21 - $30,Japanese,3.5,1.303628,103.835548,25.5,24
782,Dallas Restaurant &amp; Bar,31 Boat Quay,$21 - $30,Multi-Cuisine,4.0,1.286085,103.849805,25.5,1
783,Dallas Restaurant &amp; Bar,"Suntec City Mall (North Wing), 3 Temasek Boulevard #03-302/303",$21 - $30,American,3.5,1.293422,103.856858,25.5,16
784,Dancing Crab,"The Grandstand, 200 Turf Club Road #01-20/21",$31 - $50,American,3.5,1.338869,103.792986,40.5,16
786,DANRO,"Nex, 23 Serangoon Central #02-04/05/06",$11 - $20,Japanese,3.5,1.351221,103.872292,15.5,24
788,Dashen Minced Meat Noodles - Kopitiam,"Plaza Singapura, 68 Orchard Road #06-15/17",$0 - $9,"Singaporean, Chinese",3.5,1.300005,103.844626,4.5,4
788,Dashen Minced Meat Noodles - Kopitiam,"Plaza Singapura, 68 Orchard Road #06-15/17",$0 - $9,"Singaporean, Chinese",3.5,1.300005,103.844626,4.5,5
789,Dashi Master Marusaya,"Robertson Blue, 86 Robertson Quay #01-01",$21 - $30,Japanese,3.5,1.290298,103.837171,25.5,24
791,Dazzling Cafe,"Capitol Piazza, 15 Stamford Road #01-85",$11 - $20,Taiwanese,3.5,1.293012,103.851211,15.5,17
792,db Bistro &amp; Oyster Bar,"Marina Bay Sands, 2 Bayfront Avenue #B1-48 (The Shoppes, Galleria Level)",$81 - $150,"American, French",4.0,1.283697,103.860723,115.5,16
792,db Bistro &amp; Oyster Bar,"Marina Bay Sands, 2 Bayfront Avenue #B1-48 (The Shoppes, Galleria Level)",$81 - $150,"American, French",4.0,1.283697,103.860723,115.5,18
793,D&#39;Bell,43 North Canal Road,$21 - $30,Indian,3.5,1.287215,103.846853,25.5,20
794,DC Super Heroes Cafe,"The Shoppes at Marina Bay Sands, 2 Bayfront Avenue L1-03",$21 - $30,American,3.5,1.284884,103.859415,25.5,16
795,De Burg Caf&#233;,119 Bukit Merah Lane 1 #01-40,$11 - $20,American,3.5,1.286116,103.804833,15.5,16
797,De Ji Shu Shi,"Kebun Baru Food Centre, Blk 226H Ang Mo Kio Street 22 #01-23",$0 - $9,"Singaporean, Chinese",3.0,1.367195,103.840009,4.5,4
797,De Ji Shu Shi,"Kebun Baru Food Centre, Blk 226H Ang Mo Kio Street 22 #01-23",$0 - $9,"Singaporean, Chinese",3.0,1.367195,103.840009,4.5,5
798,Dean &amp; Deluca,"Orchard Central, 181 Orchard Road #04-23/24",$21 - $30,American,3.5,1.300813,103.839903,25.5,16
799,Decker Barbecue,"The Quayside, 60 Robertson Quay #01-17",$11 - $20,American,3.5,1.290185,103.839111,15.5,16
800,Defu BBQ,"East Coast Lagoon Food Village, 1220 East Coast Parkway #01-19",$0 - $9,"Malay, Singaporean Chinese",3.5,1.306871,103.934992,4.5,9
800,Defu BBQ,"East Coast Lagoon Food Village, 1220 East Coast Parkway #01-19",$0 - $9,"Malay, Singaporean Chinese",3.5,1.306871,103.934992,4.5,15
801,Delicacy by Food &amp; Wine Merchants,10 Gemmill Lane,$21 - $30,"Spanish, European",3.5,1.282425,103.846955,25.5,34
801,Delicacy by Food &amp; Wine Merchants,10 Gemmill Lane,$21 - $30,"Spanish, European",3.5,1.282425,103.846955,25.5,28
803,Delicious Stew Soup - CHOICE@338,Blk 338 Ang Mo Kio Ave 1,$0 - $9,"Singaporean, Chinese",3.5,1.363897,103.848728,4.5,4
803,Delicious Stew Soup - CHOICE@338,Blk 338 Ang Mo Kio Ave 1,$0 - $9,"Singaporean, Chinese",3.5,1.363897,103.848728,4.5,5
804,Delifrance,"Lot One Shoppers&#39; Mall, 21 Choa Chu Kang Ave 4 #03-14A",$0 - $9,French,3.5,1.385003,103.744925,4.5,18
805,Delifrance,"Parkway East Hospital, 321 Joo Chiat Place",$0 - $9,French,3.5,1.31512,103.909016,4.5,18
806,Delifrance,"UE Square, 81 Clemenceau Ave #01-25",$0 - $9,French,4.0,1.292042,103.842617,4.5,18
807,Delifrance,"Mount Elizabeth Hospital, 3 Mount Elizabeth Level 2 (Blk B)",$0 - $9,French,3.5,1.305013,103.835361,4.5,18
808,Delifrance,"Great World City, 1 Kim Seng Promenade #B1-16/17",$0 - $9,French,3.5,1.293902,103.831787,4.5,18
809,Delifrance,"Seletar Mall, 33 Sengkang West Avenue #02-K6",$0 - $9,French,3.5,1.391425,103.87623,4.5,18
810,Delifrance,"Siglap Centre, 55 Siglap Road, #B1-13",$0 - $9,French,3.5,1.312522,103.923278,4.5,18
811,Delifrance,"Tampines Mall, 4 Tampines Central 5 #01-38",$0 - $9,French,4.0,1.352645,103.94473,4.5,18
812,Delifrance,"Thomson Medical Centre, 339 Thomson Road #01-05",$0 - $9,French,3.5,1.325377,103.841491,4.5,18
813,Delisnacks,261 Serangoon Central Drive,$0 - $9,Singaporean Chinese,3.5,1.354187,103.872334,4.5,15
814,DEN,29 Boon Tat St,$21 - $30,European,3.5,1.281185,103.848607,25.5,28
816,De&#39;Pop Culture,749 North Bridge Road #01-01 (Off Jalan Kledek),$0 - $9,"American, Italian, Singaporean",3.5,1.303321,103.859161,4.5,16
816,De&#39;Pop Culture,749 North Bridge Road #01-01 (Off Jalan Kledek),$0 - $9,"American, Italian, Singaporean",3.5,1.303321,103.859161,4.5,19
816,De&#39;Pop Culture,749 North Bridge Road #01-01 (Off Jalan Kledek),$0 - $9,"American, Italian, Singaporean",3.5,1.303321,103.859161,4.5,4
821,Dessert Hut,"Tanjong Pagar Plaza, 1 Tanjong Pagar Plaza",$0 - $9,Fusion,3.0,1.275574,103.842828,4.5,21
824,Dessert Times,Blk 5 Changi Village Road #01-2013,$0 - $9,Multi-Cuisine,3.5,1.388832,103.986826,4.5,1
830,Desserts - Malaysian Food Street,"Resorts World Sentosa, 8 Sentosa Gateway #1",$0 - $9,Malaysian,4.0,1.25218,103.824175,4.5,25
835,Dian Xiao Er,"Nex, 23 Serangoon Central #02-09/10",$21 - $30,Singaporean Chinese,4.0,1.351221,103.872292,25.5,15
836,Dian Xiao Er,"Tampines 1, 10 Tampines Central 1 #04-07/08",$11 - $20,Beijing,3.5,1.367228,103.928218,15.5,44
837,Dian Xiao Er,"Causeway Point, 1 Woodlands Square #03-02",$11 - $20,Chinese,4.0,1.436185,103.785816,15.5,5
838,Diandin Leluk Thai Restaurant,"Golden Mile Complex, 5001 Beach Road #01-67/68/69",$11 - $20,Thai,3.5,1.302751,103.865174,15.5,12
839,Dibs,"Duxton, 51 Duxton Road",$21 - $30,European,3.5,1.278258,103.843363,25.5,28
840,Dim Sum - Koufu,"HDB Hub, Blk 500 Lorong 6 Toa Payoh #02-30",$0 - $9,Cantonese/Hong Kong,3.5,1.331922,103.848506,4.5,6
840,Dim Sum - Koufu,"HDB Hub, Blk 500 Lorong 6 Toa Payoh #02-30",$0 - $9,Cantonese/Hong Kong,3.5,1.331922,103.848506,4.5,7
841,Din Hao Wei,"Blk 456 Jurong West St 41, #01-726",$21 - $30,"Cantonese/Hong Kong, Chinese",3.5,1.350693,103.719921,25.5,6
841,Din Hao Wei,"Blk 456 Jurong West St 41, #01-726",$21 - $30,"Cantonese/Hong Kong, Chinese",3.5,1.350693,103.719921,25.5,7
841,Din Hao Wei,"Blk 456 Jurong West St 41, #01-726",$21 - $30,"Cantonese/Hong Kong, Chinese",3.5,1.350693,103.719921,25.5,5
844,Din Tai Fung,"Resorts World Sentosa, 8 Sentosa Gateway (The Forum)",$11 - $20,Taiwanese,4.0,1.255696,103.820216,15.5,17
846,Din Tai Fung,"313@Somerset, 313 Orchard Road #B2-01/03",$11 - $20,"Taiwanese, Chinese",4.0,1.301114,103.838872,15.5,17
846,Din Tai Fung,"313@Somerset, 313 Orchard Road #B2-01/03",$11 - $20,"Taiwanese, Chinese",4.0,1.301114,103.838872,15.5,5
847,Dinata,"Lot One Shoppers&#39; Mall, 21 Choa Chu Kang Ave 4  #B1-K9",$0 - $9,Portuguese,3.5,1.385003,103.744925,4.5,36
848,Dinata,"313@Somerset, 313 Orchard Road #B3-42",$0 - $9,Portuguese,3.5,1.301114,103.838872,4.5,36
849,Ding Ji - Bee Hwa Yun,Blk 177 Toa Payoh Central,$0 - $9,"Teochew, Chinese",3.5,1.333809,103.848612,4.5,8
849,Ding Ji - Bee Hwa Yun,Blk 177 Toa Payoh Central,$0 - $9,"Teochew, Chinese",3.5,1.333809,103.848612,4.5,5
850,Ding Ji,"Blk 325, Clementi Avenue 5, #01-155",$0 - $9,Teochew,3.5,1.367215,103.899049,4.5,8
851,Dippin&#39; Donut,"Vivo City, 1 Harbourfront Walk, #02-125",$0 - $9,American,4.0,1.264049,103.820981,4.5,16
852,District 10 Bar &amp; Restaurant,"Suntec City Mall, 3 Temasek Boulevard #01-514/515 (North Wing)",$21 - $30,European,4.0,1.293422,103.856858,25.5,28
853,District 10 Bar Tapas Restaurant,"The Star Vista, 1 Vista Exchange Green #01-42/K3",$21 - $30,European,3.5,1.306871,103.78857,25.5,28
854,District 10,"10 Winstedt Road, #01-17",$21 - $30,"French, Italian",4.0,1.310158,103.841937,25.5,18
854,District 10,"10 Winstedt Road, #01-17",$21 - $30,"French, Italian",4.0,1.310158,103.841937,25.5,19
855,Divine Chicken Pot,"Kopitime@PLQ Mall, 10 Paya Lebar Road, #04-11",$0 - $9,Sichuan,3.5,1.317636,103.893064,4.5,37
857,Doi Chaang Coffee,"Rochester Mall, 35 Rochester Drive #01-08",$0 - $9,Thai,3.5,1.305607,103.788051,4.5,12
858,Doi Chaang Coffee,321 Clementi Avenue 3 #01-02,$0 - $9,Thai,3.5,1.311986,103.765021,4.5,12
859,Dolce Tokyo,"Bugis Junction, 200 Victoria St #03-10H",$11 - $20,"Italian, Japanese, Fusion",3.5,1.298508,103.855434,15.5,19
859,Dolce Tokyo,"Bugis Junction, 200 Victoria St #03-10H",$11 - $20,"Italian, Japanese, Fusion",3.5,1.298508,103.855434,15.5,24
859,Dolce Tokyo,"Bugis Junction, 200 Victoria St #03-10H",$11 - $20,"Italian, Japanese, Fusion",3.5,1.298508,103.855434,15.5,21
860,Dolce Tokyo,"313@Somerset, 313 Orchard Road #03-41",$11 - $20,"Italian, Japanese, Fusion",3.5,1.301114,103.838872,15.5,19
860,Dolce Tokyo,"313@Somerset, 313 Orchard Road #03-41",$11 - $20,"Italian, Japanese, Fusion",3.5,1.301114,103.838872,15.5,24
860,Dolce Tokyo,"313@Somerset, 313 Orchard Road #03-41",$11 - $20,"Italian, Japanese, Fusion",3.5,1.301114,103.838872,15.5,21
861,Dolce Vita,"Mandarin Oriental Singapore, 5 Raffles Avenue Level 5",$51 - $80,Italian,4.5,1.290661,103.858324,65.5,19
862,D&#244;me,"Bishan Community Club, Blk 51 Bishan St 13 #01-02",$21 - $30,American,3.5,1.354034,103.85233,25.5,16
863,D&#244;me,"Plaza Singapura, 68 Orchard Road #03-92",$21 - $30,American,3.0,1.300005,103.844626,25.5,16
865,Domino&#39;s Pizza,Blk 111 Jalan Bukit Merah #01-1678,$11 - $20,Italian,4.0,1.28032,103.826182,15.5,19
866,Domino&#39;s Pizza,943/945 Upper Serangoon Road,$11 - $20,Italian,3.0,1.361457,103.88618,15.5,19
867,Domino&#39;s Pizza,Blk 166 Woodlands St 13 #02-525,$11 - $20,Italian,3.5,1.434235,103.77553,15.5,19
868,Don Your Personal Pie Club,"Nex, 23 Serangoon Central #03-K18",$0 - $9,Singaporean,3.5,1.351221,103.872292,4.5,4
869,Dong Dae Mun,"Plaza Singapura, 68 Orchard Road #B2-42",$0 - $9,Korean,4.0,1.300005,103.844626,4.5,2
870,Dong Dong Hainanese Chicken Rice,"People&#39;s Park Complex Food Centre, 32 New Market Road #01-1110",$0 - $9,"Singaporean, Chinese",3.5,1.292856,103.859838,4.5,4
870,Dong Dong Hainanese Chicken Rice,"People&#39;s Park Complex Food Centre, 32 New Market Road #01-1110",$0 - $9,"Singaporean, Chinese",3.5,1.292856,103.859838,4.5,5
871,Dong Ji Fried Kway Teow,"51 Old Airport Road Food Centre &amp; Shopping Mall, 51 Old Airport Road #01-138",$0 - $9,"Singaporean, Chinese",3.5,1.280455,103.844656,4.5,4
871,Dong Ji Fried Kway Teow,"51 Old Airport Road Food Centre &amp; Shopping Mall, 51 Old Airport Road #01-138",$0 - $9,"Singaporean, Chinese",3.5,1.280455,103.844656,4.5,5
872,Donna Carmela,"Hillcrest Park, 2 Greenwood Ave",$21 - $30,Latin American/South American,3.5,1.331304,103.807373,25.5,40
872,Donna Carmela,"Hillcrest Park, 2 Greenwood Ave",$21 - $30,Latin American/South American,3.5,1.331304,103.807373,25.5,41
873,Don&#39;s Pie &amp; Cake,"North Toa Payoh Food Centre II, 1008A Toa Payoh",$31 - $50,Chinese,3.5,1.343274,103.846583,40.5,5
874,Doodle!,"Oasia Hotel, 8 Sinaran Drive",$11 - $20,Italian,3.5,1.32003,103.844782,15.5,19
875,Doodle! &amp; Switch!,"Millenia Walk, 9 Raffles Boulevard #01-88/89",$11 - $20,Fusion,3.5,1.292083,103.859414,15.5,21
876,Doong Ji Korean Restaurant,222 East Coast Road,$21 - $30,Korean,4.0,1.307405,103.907474,25.5,2
878,Doubleshots Cafe,"SouthBank, 883 North Bridge Road #01-10",$0 - $9,American,3.5,1.303342,103.859187,4.5,16
881,Dragon Bowl,"Aperia Mall, 12 Kallang Avenue #02-09",$21 - $30,Cantonese/Hong Kong,4.0,1.310411,103.864535,25.5,6
881,Dragon Bowl,"Aperia Mall, 12 Kallang Avenue #02-09",$21 - $30,Cantonese/Hong Kong,4.0,1.310411,103.864535,25.5,7
882,Dragon Phoenix Classic,"Novotel Singapore Clarke Quay, 177A River Valley Road Level 6",$31 - $50,Cantonese/Hong Kong,4.0,1.291667,103.844507,40.5,6
882,Dragon Phoenix Classic,"Novotel Singapore Clarke Quay, 177A River Valley Road Level 6",$31 - $50,Cantonese/Hong Kong,4.0,1.291667,103.844507,40.5,7
888,Drinks Stall - Hup Choon Eating House,1 Binjai Park,$0 - $9,Singaporean,3.5,1.335977,103.786535,4.5,4
891,D&#39;Star Bistro,"SUTD Building 1, 8 Somapah Road #01-102",$21 - $30,"Italian, Western Variety",3.5,1.34084,103.9639,25.5,19
891,D&#39;Star Bistro,"SUTD Building 1, 8 Somapah Road #01-102",$21 - $30,"Italian, Western Variety",3.5,1.34084,103.9639,25.5,38
892,DSTLLRY,"Infinite Studios, 21 Media Circle #01-01",$11 - $20,Japanese,3.5,1.292409,103.79462,15.5,24
893,Duck Rice. Fishball Noodle - HG631 Food House,"HG631 Food House, 631 Hougang Avenue 8 #01-08",$0 - $9,"Singaporean, Chinese",3.5,1.37056,103.88141,4.5,4
893,Duck Rice. Fishball Noodle - HG631 Food House,"HG631 Food House, 631 Hougang Avenue 8 #01-08",$0 - $9,"Singaporean, Chinese",3.5,1.37056,103.88141,4.5,5
894,Duckland,"PLQ Mall, 10 Paya Lebar Road, #B2-33",$21 - $30,Fusion,3.5,1.317369,103.893266,25.5,21
897,Dulu Kala The Peranakan Home,"Beauty World Centre, 144 Upper Bukit Timah Road #04-04",$11 - $20,Peranakan / Nonya,4.0,1.342492,103.776647,15.5,13
897,Dulu Kala The Peranakan Home,"Beauty World Centre, 144 Upper Bukit Timah Road #04-04",$11 - $20,Peranakan / Nonya,4.0,1.342492,103.776647,15.5,14
898,Dulukala at Island,"Tangs Plaza, 310 Orchard Road",$31 - $50,Peranakan / Nonya,3.5,1.304755,103.833069,40.5,13
898,Dulukala at Island,"Tangs Plaza, 310 Orchard Road",$31 - $50,Peranakan / Nonya,3.5,1.304755,103.833069,40.5,14
899,Dunkin&#39; Donuts,"Bugis Junction,  200 Victoria St #B1-K26",$0 - $9,American,3.5,1.298508,103.855434,4.5,16
900,Dunkin&#39; Donuts,"ION Orchard, 2 Orchard Turn #B4-60",$0 - $9,American,4.0,1.304082,103.832016,4.5,16
901,DurianBB,"462 Crawford Lane, #01-65",$0 - $9,Singaporean,3.5,1.304517,103.860917,4.5,4
902,Dutch Colony Coffee Co.,113 Frankel Avenue,$0 - $9,European,3.5,1.314253,103.919528,4.5,28
903,"Dynasty F&amp;B (Seafood Restaurant, Curry Mixed Rice)",520 MacPherson Road,$11 - $20,Chinese,3.5,1.332281,103.884158,15.5,5
904,E-Sarn,"Ridgewood Condominium, 5 Ridgewood Close Unit G2",$0 - $9,Thai,3.5,1.315956,103.777668,4.5,12
905,E-Sarn,9 Thomson Ridge,$0 - $9,Thai,3.0,1.352895,103.833787,4.5,12
906,Each-A-Cup,"Concorde Hotel &amp; Shopping Mall, 100 Orchard Road (Juz Food Court)",$0 - $9,Taiwanese,3.5,1.300648,103.842193,4.5,17
907,Each-A-Cup,"One Raffles Place, 1 Raffles Place #B1-03A",$0 - $9,Taiwanese,3.5,1.28453,103.850971,4.5,17
908,Each-A-Cup,"Wilkie Edge, 8 Wilkie Road #01-06",$0 - $9,Taiwanese,3.5,1.301832,103.849915,4.5,17
909,Each-A-Cup,"The Centrepoint, 176 Orchard Road #B1-14 (Cold Storage)",$0 - $9,Taiwanese,3.5,1.301371,103.839735,4.5,17
910,Each-A-Cup - South Canteen,"Nanyang Polytechnic, 180 Ang Mo Kio Avenue 8 (Blk P)",$0 - $9,Taiwanese,3.5,1.380099,103.849099,4.5,17
911,Each-A-Cup,"Northpoint, 930 Yishun Ave 2 #B1-11/16",$0 - $9,Taiwanese,3.5,1.42846,103.836099,4.5,17
912,EagleWings Loft,"9 King Albert Park, #01-14/34, King Albert Park Residences Shopping Mall",$11 - $20,Multi-Cuisine,3.5,1.336918,103.779127,15.5,1
913,Earle Swensen&#39;s,"VivoCity, 1 Harbourfront Walk #02-117",$11 - $20,American,3.5,1.263928,103.822229,15.5,16
