name,street_address,price,cuisine,rating,latitude,longitude
1-V:U,"The Outpost Hotel Sentosa, 10 Artillery Avenue, Level 7",$31 - $50,Asian Variety,,1.252299,103.820211
10 At Claymore,"Pan Pacific Orchard, 10 Claymore Road Level 2",$51 - $80,Multi-Cuisine,4,1.307401,103.829904
10 SCOTTS,"Grand Hyatt Singapore, 10 Scotts Road Lobby Level",$31 - $50,,3.5,1.306345,103.833283
100g Korean BBQ,93 Amoy Street,$21 - $30,Korean,3.5,1.281299,103.847092
10th Chocolate Street,"GSM Buidling, 141 Middle Road",$11 - $20,Belgian,,1.299438,103.852403
123 Seafood,"Chinatown Complex Market and Food Centre, 335 Smith St #02-203/204",Under $10,"Singaporean, Chinese",,1.28236,103.843546
126 Wen Dou Sek,126 Sims Avenue,$11 - $20,Cantonese/Hong Kong,4,1.314219,103.878429
126 Wen Dou Sek,1086 Serangoon Road,Under $10,Cantonese/Hong Kong,,1.323609,103.86496
128 Fish Porridge,"Jurong West 505 Market &amp; Food Centre, Blk 505 Jurong West St 52 #01-40",Under $10,,,1.349645,103.718447
128 Lor Mee,"Whampoa Makan Place, 90 Whampoa Drive #01-28",Under $10,,,1.32307,103.85499
132 Traditional Teochew Noodle,"CCMW Coffeeshop, Blk 59 Marine Terrace, #01-105",Under $10,Chinese,3,1.305812,103.914768
135 Fishball Noodle,"Toa Payoh West Market &amp; Food Court, Blk127 Lorong 1 Toa Payoh #02-11",Under $10,,3.5,1.340267,103.854416
136 Hong Kong Street Fish Head Steamboat,291 South Bridge Road,$11 - $20,"Teochew, Chinese",3.5,1.281415,103.845043
136 Hong Kong Street Fish Head Steamboat,Blk 19 Lorong 7 Toa Payoh #01-264,$11 - $20,Cantonese/Hong Kong,,1.33533,103.856453
138,"Redhill Food Centre, Blk 85 Redhill Lane #01-54",Under $10,,4,1.287312,103.818335
138 Kway Chap Porridge,"Bukit Timah Market &amp; Food Centre, 116 Upper Bukit Timah Road #02-138",Under $10,Singaporean,,1.339401,103.776083
178 Lor Mee,"Tiong Bahru Market, 30 Seng Poh Road #02-23",Under $10,,4,1.284759,103.832679
18 Economical Delights,"Maxwell Food Centre, 1 Kadayanallur St #01-18",Under $10,"Singaporean, Chinese",,1.280489,103.844672
1933 Singapore,"Capitol Piazza, 15 Stamford Road #L1-83",$11 - $20,,3.5,1.293012,103.851211
1953 Yr Big Prawn Noodle - Kopitiam,"Jurong Point, 1 Jurong West Central 2 #03-42 (JP1)",Under $10,,3,1.322669,103.720709
1983 A Taste Of Nanyang,"Jem, 50 Jurong Gateway Road #05-04 (Cookhouse)",Under $10,Malay,,1.333169,103.743536
1st Grade Otah,"Downtown East, 1 Pasir Ris Close #01-22",Under $10,Singaporean,3,1.377757,103.955297
2 Loaves,Blk 46-3 Commonwealth Drive #01-388,Under $10,,,1.299966,103.79772
$2 Nasi Lemak,"Jurong West 505 Market &amp; Food Centre, Blk 505 Jurong West Street 52 #01-21",Under $10,,,1.349645,103.718447
201C Fish Ball Noodles,Blk 201C Tampines St 21,Under $10,"Singaporean, Chinese",,1.352813,103.953001
20F Specialty Coffeehouse,20 Foch Road,$11 - $20,,3.5,1.312112,103.859978
21 on Rajah,"Days Hotel, 1 Jalan Rajah Road",$31 - $50,"Middle Eastern/Mediterranean, Singaporean",3.5,1.326978,103.847366
2D1N Soju Bang Korean Restaurant,44/46 Tanjong Pagar Road,$31 - $50,Korean,4,1.279349,103.843652
2nd Mini Steamboat Delight,"Novena Gardens, 273 Thomson Road, #01-04",$11 - $20,Singaporean,4,1.320479,103.841994
2The Pot,333 Joo Chiat Road,$11 - $20,"Thai, Chinese",,1.309063,103.90282
328 Katong Laksa,"Queensway Shopping Centre, 1 Queensway #01-60",Under $10,Peranakan / Nonya,3.5,1.287477,103.8034
328 Katong Laksa,51 East Coast Road,Under $10,Singaporean Chinese,3.5,1.305096,103.903211
328 Katong Laksa,216 East Coast Road,Under $10,Chinese,3.5,1.307317,103.907347
363 Holland Village Nasi Lemak,"Holland Village Market &amp; Food Centre, 1 Lorong Mambong #01-15",Under $10,Malay,3.5,1.311803,103.796177
4 Fingers Crispy Chicken,"Plaza Singapura, 68 Orchard Road #B1-07",Under $10,Korean,3.5,1.300005,103.844626
4 Fingers Crispy Chicken,"ION Orchard, 2 Orchard Turn #B4-06A",Under $10,Korean,3.5,1.304082,103.832016
5 Drunken Rabbits Bistro &amp; Bar,201 Pasir Ris Road,$21 - $30,American,3,1.382091,103.947924
5 Little Bears,"Far East Plaza, 14 Scotts Road #01-07",Under $10,"Taiwanese, Chinese",3,1.307079,103.833146
5 Little Bears,"Paya Lebar Square, 60 Paya Lebar Road #B1-09",Under $10,Taiwanese,,1.318786,103.892577
5 Senses,"799 New Upper Changi Road, #02-30/31",$11 - $20,French,,1.324952,103.932317
545 Whampoa Prawn Noodle,"Whampoa Makan Place, 91 Whampoa Drive #01-39",Under $10,,3.5,1.32307,103.85499
69 Cold Soya Beancurd,"115 Bukit Merah View Market &amp; Food Centre, Blk 115 Bukit Merah View #01-76",Under $10,"Singaporean, Chinese",,1.285187,103.822077
(7&quot;)&#178; Pizza,"Lau Pa Sat Festival Market, 18 Raffles Quay",Under $10,Italian,,1.280259,103.850614
7 Gang Kway Chap,"Kim Keat Palm Market &amp; Food Centre, Blk 22 Lorong 7 Toa Payoh #01-32",Under $10,,3.5,1.335532,103.85695
7 Wonders Seafood,369 Jalan Besar,$11 - $20,Singaporean Chinese,,1.312819,103.859594
71 Lor Mee,"Bukit Merah View Hawker Centre, Blk 115 Bukit Merah View #01-71",Under $10,,,1.285187,103.822077
761 Yishun Seafood,"Blk 761, Yishun St 72",Under $10,Singaporean,3,1.425474,103.833219
78 Economic Mixed Rice - KTP Coffee Shop,"KTP Coffee Shop, 401 Hougang Avenue 10",Under $10,Singaporean,,1.37484,103.896991
8 Korean BBQ,"The Central, 6 Eu Tong Sen St #02-79/90",$31 - $50,Korean,4,1.28878,103.846236
8 Korean BBQ,"1 Scotts Road, #04-20/21 Shaw Centre",$31 - $50,Korean,,1.305918,103.832015
848 Sugar Cane &amp; Fruit Juice,"Maxwell Food Centre, 1 Kadayanallur St #01-84",Under $10,,,1.280489,103.844672
85 Bedok North Fried Oyster,"Bedok 85 Market, Blk 85 Bedok North St 4 #01-09/10",Under $10,"Singaporean, Chinese",3.5,1.332,103.938762
88 Chicken Rice,Blk 726 Clementi West,Under $10,"Singaporean, Chinese",,1.30413,103.764564
8Tarts n Pastries,"Tampines Mall, 4 Tampines Central 5 #B1-K13",Under $10,Cantonese/Hong Kong,3.5,1.352645,103.94473
91 Fried Kway Teow Mee,"Golden Mile Food Centre, 505 Beach Road #01-91",Under $10,,3.5,1.303082,103.863835
99 Le Cha Shi,"Bedok Interchange Food Centre, Blk 207 New Upper Changi Road #01-39",Under $10,,,1.325246,103.930352
9Goubuli,"Marina Bay Sands, 2 Bayfront Avenue #B2-02 (The Shoppes)",$21 - $30,Singaporean Chinese,,1.283697,103.860723
A B Mohamed Restaurant,276/8 Serangoon Road,Under $10,Indian,,1.310496,103.854587
A for Arbite,28 Aliwal St #01-01,$21 - $30,Fusion,4,1.302552,103.86107
A-Gan TEA,Blk 703 Ang Mo Kio Ave 8 #01-25,Under $10,Taiwanese,3.5,1.369778,103.84732
A-One Bak Kut Teh,"The Star Vista, 1 Vista Exchange Green #01-46",$11 - $20,"Singaporean, Chinese",,1.306871,103.78857
A-One Claypot House,"Jurong Point, 1 Jurong West Central 2 #03-09/10/11 (JP1)",$11 - $20,,3.5,1.322669,103.720709
A-One Claypot House,"Bukit Panjang Plaza, 1 Jelubu Road #01-58/59",$11 - $20,Chinese,3.5,1.378902,103.76171
A-One Claypot House,"Nex, 23 Serangoon Central #B1-73",$11 - $20,,,1.351221,103.872292
A-One Claypot House,Tampines 1 #05-04,Under $10,Chinese,3.5,1.354803,103.943453
A-One Claypot House,"Causeway Point, 1 Woodlands Square #03-31",$11 - $20,,,1.436185,103.785816
A.R.C. Coffee,29/31 Sultan Gate,$11 - $20,American,,1.30137,103.860681
A-Roy Thai Restaurant,"238 Thomson Road, #03-61, Novena Square",$11 - $20,Thai,4,1.319589,103.844028
A-Roy Thai Restaurant,"Goodwill Court, 81 Upper East Coast Road",$11 - $20,Thai,4,1.312998,103.927624
A&amp;W,"Jewel Changi Airport, 78 Airport Boulevard, #B2-209",Under $10,American,,1.360234,103.989709
A1 Chicken Rice,"Ang Mo Kio Market &amp; Food Centre, Blk 724 Ang Mo Kio Ave 6 #01-42",Under $10,Hainanese,,1.37008,103.849523
A1 Family Ayam Goreng &amp; Western Food - Everday Come Coffeeshop,Blk 477 Tampines St 43 #01-192,Under $10,,,1.389233,103.772983
A1 Family Ayam Goreng &amp; Western Food - TP406 Food House,406 Tampines Street 41 #01-07,Under $10,Singaporean Western,3.5,1.358074,103.945768
aBite,46 Owen Road #01-277,$21 - $30,,,1.31514,103.850797
Absinthe,72 Boat Quay,$51 - $80,French,3.5,1.288015,103.849246
Aburiya,"The Quayside, 60 Robertson Quay #01-03",$31 - $50,Japanese,4,1.290185,103.839111
Adam&#39;s Delights,"Adam Road Food Centre, 2 Adam Road #01-11",Under $10,Indian,,1.324163,103.814149
Addictions Caf&#233; &amp; Remedy Bar,"Marina Square, 6 Raffles Boulevard #02-105A",$21 - $30,Multi-Cuisine,3.5,1.291914,103.856261
Aeiou,111 King George&#39;s Ave,$11 - $20,,3.5,1.46694,103.82278
Aglio Olio,"Nankin Row, 3 Pickering St #01-40/41",$11 - $20,Italian,3.5,1.283955,103.847818
Agrobazaar Malaysia,37-43 Sultan Gate,Under $10,Malaysian,,1.301576,103.860554
Ah Chew Desserts,"Liang Seah St, 1 Liang Seah St #01-10/11",Under $10,,4,1.297911,103.856337
Ah Chuan Fried Oyster Omelette,"Kim Keat Palm Market &amp; Food Centre, Blk 22 Lorong 7 Toa Payoh #01-25",Under $10,Fujian/Heng Hwa,3.5,1.335532,103.85695
Ah Dong Tea Restaurant,10 Tebing Lane #01-03/04,Under $10,Fusion,3.5,1.392912,103.917405
Ah Heng Curry Chicken Bee Hoon Mee,"Hong Lim Market &amp; Food Centre, Blk 531A Upper Cross St #02-57/58",Under $10,Chinese,4,1.285221,103.845905
Ah Heng Duck Rice,"Hong Lim Market &amp; Food Centre, Blk 531A Upper Cross St #02-64",Under $10,Chinese,3.5,1.285221,103.845905
Ah Hock Fried Hokkien Noodles,"Chomp Chomp Food Centre, 20 Kensington Park Road #01-29",Under $10,,4,1.364233,103.866536
Ah Hock Fried Oyster Hougang,"Whampoa Makan Place, 90 Whampoa Drive #01-54",Under $10,,4,1.32307,103.85499
Ah Hoe Mee Pok,"Weng Kwang Coffee House, Blk 710 Clementi West Street 2",Under $10,,,1.306243,103.761573
Ah Kow Mushroom Minced Pork Mee,Block 359 Bukit Batok Street 31,Under $10,"Malaysian, Singaporean Chinese",,1.361365,103.751307
Ah Lam&#39;s Abalone Soup,460 Race Course Road,Under $10,,3.5,1.309469,103.852039
Ah Liang BBQ Seafood,"Serangoon Garden Market &amp; Food Centre, 49A Serangoon Garden Way",Under $10,Singaporean,3,1.363239,103.866651
Ah Long Mian Tan,"Eating House 815, Jurong West St 81 #01-210",Under $10,,,1.348099,103.694874
Ah Loy Thai,"Shaw Towers, 100 Beach Road #01-39/40",$11 - $20,Thai,4,1.296996,103.85689
Ah Meng Restaurant,"Singapore Zoo, 80 Mandai Lake Road",Under $10,Singaporean,3.5,1.404081,103.783544
Ah Nam BBQ Seafood Steamed Fish,"Changi Village Hawker Centre, Blk 2 Changi Village Road #01-67/68",Under $10,Chinese,3.5,1.38907,103.988457
Ah Orh Seafood Restaurant,Blk 115 Jalan Bukit Merah #01-1627,$31 - $50,"Teochew, Chinese",4,1.284098,103.814547
Ah Seah Teochew Porridge,31/33 Teck Chye Terrace,Under $10,"Teochew, Chinese",3,1.353392,103.87677
Ah Seng Durian,"Ghim Moh Road Market and Food Centre, Blk 20 Ghim Moh Road #01-197",$11 - $20,,,,
Ah-Tai Hainanese Chicken Rice,"Maxwell Food Centre, 1 Kadayanallur St #01-07",Under $10,,3.5,1.280489,103.844672
Ah Teck Herbal Claypot Bak Kut Teh ,"161 Bukit Merah Central, #01-3749, Hua Ren Ju Seafood Restaurant",Under $10,Singaporean,,1.283532,103.815885
Ah Yat Seafood Restaurant,"The Grandstand, 200 Turf Club Road #03-01/02",$51 - $80,Chinese,3.5,1.338869,103.792986
Ah Yee&#39;s Soon Kueh,"Dunman Food Centre,  271 Onan Road #01-05",Under $10,Teochew,3.5,1.309418,103.901833
Aher Soup,443 Pasir Ris,Under $10,"Singaporean, Chinese",,1.369589,103.957391
Ai Mien Bar,"Capital Tower, 168 Robinson Road #01-08",$11 - $20,,3.5,1.277765,103.847718
AiSkiLin,215F Upper Thomson Road,Under $10,Thai,,1.352354,103.834886
Ajisen Ramen,"Lot One Shoppers&#39; Mall, 21 Choa Chu Kang Ave 4 #04-11/12",$11 - $20,Japanese,4,1.385003,103.744925
Ajisen Ramen,"The Clementi Mall, 3155 Commonwealth Ave West #B1-34/35",$11 - $20,Japanese,4,1.314791,103.764247
Ajisen Ramen - FEAST,"Jurong Point, 63 Jurong West Central 3 #03-38/38A (JP2)",$11 - $20,Japanese,4.5,1.338894,103.705622
Ajisen Ramen,"Hougang Mall, 90 Hougang Ave 10 #02-11/19",$11 - $20,Japanese,3.5,1.37243,103.893756
Ajisen Ramen,"IMM, 2 Jurong East St 21 #01-113/114",$11 - $20,Japanese,3.5,1.347118,103.728632
Ajisen Ramen - Rasapura Masters,"Marina Bay Sands, 2 Bayfront Avenue #B2-50 (The Shoppes)",$11 - $20,Japanese,3.5,1.283697,103.860723
Ajisen Ramen,"Sembawang Shopping Centre, 604 Sembawang Road, #02-29/30",$11 - $20,Japanese,3.5,1.441732,103.824813
Ajisen Ramen,"Compass Point, 1 Sengkang Square #02-15",$11 - $20,Japanese,3.5,1.392393,103.895331
Ajisen Ramen,"Tampines Mall, 4 Tampines Central 5 #04-19/20",$11 - $20,Japanese,3.5,1.352645,103.94473
Akari Japanese Dining &amp; Bar,"Marina Bay Financial Centre, 8A Marina Boulevard #01-02 (Ground Plaza)",$31 - $50,Japanese,,1.279467,103.854504
Akashi Japanese Restaurant,"Orchard Parade Hotel, 1 Tanglin Road #01-01A",$31 - $50,Japanese,3.5,1.306552,103.827811
Akashi Japanese Restaurant,"VivoCity, 1 Harbourfront Walk #B2-28",$31 - $50,Japanese,3.5,1.263928,103.822229
Al-Azhar Eating Restaurant,11 Cheong Chin Nam Road,Under $10,"Indian, Malay",3.5,1.342535,103.775246
AL Azmath Prata Stall,Blk 632 Ang Mo Kio Ave 4 #01-948,Under $10,Indian,,1.380236,103.841285
AL FALAH Restaurant,"681, Hougang Avenue 8, #01-855",Under $10,,3.5,1.372996,103.88568
Al Forno East Coast,400 East Coast Road,$21 - $30,Italian,4,1.308792,103.912215
Al-Mahayas Bryani Prata Hut,"Ang Mo Kio Market &amp; Food Centre, Blk 724 Ang Mo Kio Ave 6 #01-04",Under $10,Indian,,1.37008,103.849523
Al Mahboob Rojak Restaurant,506 Tampines Central 1 #01-361,Under $10,Indian,,1.356035,103.945913
Alex&#39;s Eating House,"Chye Sing Building, 87 Beach Road #01-01",Under $10,Cantonese/Hong Kong,3.5,1.297403,103.856646
Alfero Artisan Gelato,"Orchard Gateway, 277 Orchard Road #B2-06",Under $10,Italian,4,1.301085,103.838988
Al&#39;Frank Cookies,12 Haji Lane,Under $10,,,1.300537,103.85936
Alibabar Dining Caf&#233; Bar,"Alexandra Central, 321 Alexandra Road #01-15",$11 - $20,,,1.287251,103.805421
Alkaff Mansion Ristorante,10 Telok Blangah Green,$31 - $50,Italian,4,1.278867,103.813257
Alliance Seafood,"Newton Circus Food Centre, 500 Clemenceau Avenue North, #01-27",$21 - $30,Singaporean Chinese,4.5,1.312061,103.839529
Alma by Juan Amador,"Goodwood Park Hotel, 22 Scotts Road",$31 - $50,European,,1.308678,103.834669
Alt. Pizza,"Suntec City Mall, East Wing, 3 Temasek Boulevard #01-602/603",$21 - $30,Italian,,1.293422,103.856858
AmaSoy,"Jurong Point, 63 Jurong West Central 3 #03-42/47 (JP2)",Under $10,Japanese,4,1.338894,103.705622
AmaSoy,"ION Orchard, 2 Orchard Turn #B4-64",Under $10,"Japanese, Singaporean",3,1.304082,103.832016
Amazing Hokkaido,"Riverside View, 30 Robertson Quay, #01-16",$21 - $30,Japanese,,1.291277,103.841351
Amazonia Bistro,"Great World City, 1 Kim Seng Promenade #03-08",Under $10,American,4,1.293902,103.831787
Ambush,"Junction 8 Shopping Centre, 9 Bishan Place #02-19/20/27",$11 - $20,European,3.5,1.350045,103.848304
Ambush,"Plaza Singapura, 68 Orchard Road #04-64/66",$11 - $20,European,3.5,1.300005,103.844626
Ambush,"Jem, 50 Jurong Gateway Road #04-13",$11 - $20,European,3.5,1.333169,103.743536
Ambush,"Ngee Ann City, 391 Orchard Road #B2 (Takashimaya Food Hall)",$11 - $20,European,4,1.302664,103.834623
Amici Authentic Italian Restaurant,"Holland Village, 275 Holland Ave",$21 - $30,"Italian, European",3.5,1.311803,103.796177
Amigo Noodle,"Changi Village Hawker Centre, Blk 2 Changi Village Road #01-34",Under $10,,3.5,1.38907,103.988457
Amk Mushroom Minced Meat Noodle,"Ang Mo Kio 628 Market, Blk 628 Ang Mo Kio Ave 4 #01-72",Under $10,,4,1.380941,103.840645
An Australian Concept - Tasty Foodcourt,"Tanglin Mall, 163 Tanglin Road #B1-17",Under $10,Australian / New Zealand,,1.304787,103.82383
Ananas Cafe,"Ang Mo Kio MRT Station, 2450 Ang Mo Kio Avenue 8",Under $10,Singaporean,,1.369556,103.849635
Ananas Cafe,"Bukit Gombak MRT, 802 Bukit Batok West Ave 5 #01-11",Under $10,,3,1.358991,103.752078
Ananas Cafe,"Bukit Batok MRT, 10  Bukit Batok Central #01-16",Under $10,,,1.348976,103.749544
Ananas Cafe,"CityVibe, 3151 Commonwealth Ave West #01-11",Under $10,,3.5,1.314294,103.765135
Ananas Cafe,"Kranji MRT, 960 Woodlands Road",Under $10,,,1.425219,103.761989
Ananas Cafe,"V Hotel, 70 Jelicoe Road",Under $10,Singaporean,,1.298993,103.850795
Ananas Cafe,"Pasir Ris MRT, Blk 10 Pasir Ris Central #01-02 to 05/15",Under $10,,3,,
Ananas Cafe,"Queenstown MRT, 301 Commonwealth Ave",Under $10,,4.5,1.294628,103.80601
Ananas Cafe,"Tiong Bahru Plaza, 302 Tiong Bahru Road #01-02A/03",Under $10,,3.5,1.28643,103.827693
And Why,31 Bali Lane,$11 - $20,American,,1.301293,103.858407
Andersen’s of Denmark,"Jurong Point, 1 Jurong West Central 2 #02-K6 (JP1)",Under $10,,3.5,1.322669,103.720709
Andersen’s of Denmark,"Marina Square, 6 Raffles Boulevard #02-207A",Under $10,American,4,1.291914,103.856261
Andersen’s of Denmark,"Suntec City Mall, East Wing, 3 Temasek Boulevard #02-606A",Under $10,,4,1.293422,103.856858
Andersen’s of Denmark,"IMM, 2 Jurong East St 21 #01-12A",Under $10,American,4,1.347118,103.728632
Aneka Rasa Chicken Rice,"Kovan Hougang Market &amp; Food Centre, 209 Hougang St 21 #01-25",Under $10,Malay,,1.359155,103.885976
Ang Sa Lee Fried Oyster,"Chomp Chomp Food Centre, 20 Kensington Park Road #01-33",Under $10,,4,1.364233,103.866536
Ang Teck Lim Drinks Stall,"Changi Village Hawker Centre, Blk 2/3 Changi Village Road #01-10",Under $10,,,1.389658,103.988092
Angel &amp; Devil,22 Keong Saik Road,$31 - $50,"European, Asian Variety",,1.280047,103.841665
Anjappar,"Jurong Point, 63 Jurong West Central 3 #03-35A (JP2)",$11 - $20,Indian,,1.338894,103.705622
Annalakshmi,"Chinatown Point, Podium A, 133 New Bridge Road, #B1-02  ",$31 - $50,Indian,,1.285182,103.844621
Antoinette,30 Penhas Road,$11 - $20,French,4,1.309729,103.86222
Aoki Restaurant,"Shaw Centre, 1 Scotts Road #01-17",$81 - $150,Japanese,4.5,1.306359,103.831646
AquaMarine,"Marina Mandarin Singapore, 6 Raffles Boulevard Level 4",$31 - $50,Multi-Cuisine,4,1.291914,103.856261
Arbite,66A Serangoon Garden Way,$21 - $30,European,3.5,1.364082,103.865609
Archipelago Creamery,"Nanyang Community Club, 60 Jurong West St 91 #01-09",Under $10,,,1.342071,103.686271
Arirang Korean Restaurant,"Liang Seah St, 1 Liang Seah St #01-07",$11 - $20,Korean,2.5,1.297911,103.856337
Arnold&#39;s Fried Chicken,"City Plaza, 810 Geylang Road #02-99/101",$11 - $20,,3.5,1.314618,103.893573
Arnold&#39;s Fried Chicken,"Golden Village Cinema, 51 Yishun Central 1 #01-04",Under $10,,3.5,1.429929,103.836338
Arossa Wine &amp; Grill,"Scotts Square, 6 Scotts Rd #02-01",$31 - $50,Italian,4,1.305834,103.832933
Aroy Dee Thai Caf&#233;,262 Middle Road,Under $10,Thai,,1.301672,103.850433
Aroy Dee Thai Food,"Redhill Food Centre, Blk 85 Redhill Lane,  #01-25",Under $10,Singaporean,,1.287312,103.818335
Aroy Mak Mookata,510 MacPherson Road,Under $10,Thai,,1.332242,103.883913
Aroy Mootaka Thai BBQ Steamboat,Blk 1008A Toa Payoh North,Under $10,Thai,3,1.343274,103.846583
Artease Cafe,"Cathay Cineleisure Orchard, 8 Grange Road #01-03",Under $10,,3.5,1.301454,103.836467
Artease,"NTU, 14 Nanyang Circle",Under $10,,3.5,1.345817,103.687122
Arteastiq DePatio,"Plaza Singapura, 68 Orchard Road, #03-70/72",$51 - $80,English,4,1.300005,103.844626
Arteastiq,"Mandarin Gallery, 333A Orchard Road, #04-14/15",$51 - $80,"Asian Variety, Fusion",4,1.30203,103.836642
Arteastiq Tea Bone China,"Millenia Walk, 9 Raffles Boulevard #02-19/20",$21 - $30,"Cantonese/Hong Kong, Shanghainese",3.5,1.292083,103.859414
Artisan Boulangerie Co.,"Asia Square Tower 2, 12 Marina View #01-02",$11 - $20,French,,1.278117,103.850773
Artistry,17 Jalan Pinang,$11 - $20,English,4,1.302891,103.858189
AS Indian Classic Cuisine,"Lau Pa Sat Festival Market, 18 Raffles Quay",Under $10,Indian,,1.280259,103.850614
As-Shifaa Caf&#233;,"Lucky Plaza, 304 Orchard Road #06-52",Under $10,Malay,4.5,1.30459,103.83407
Asanoya Bakery,15 Queen St #01-03,Under $10,Japanese,4,1.298038,103.852678
Ash &amp; Elm,"InterContinental Singapore, 80 Middle Road Level 1",$31 - $50,European,3.5,1.298437,103.854991
Asian Cuisine,"Entrepreneur Business Centre, 18 Kaki Bukit Road 3, #01-15",$21 - $30,Singaporean Chinese,,1.336934,103.902588
Asian Market Caf&#233;,"Fairmont Singapore, 80 Bras Basah Road Level 2",$31 - $50,Asian Variety,4,1.294082,103.853857
Assembly Coffee,26 Evans Road,$11 - $20,,4,1.318714,103.820406
Aster Pau,"AMK Hub, 53 Ang Mo Kio Ave 3 #B2-38",Under $10,Cantonese/Hong Kong,2.5,1.36926,103.849189
Astons Express,Blk 721 Ang Mo Kio Ave 8 #01-2823,Under $10,,4,1.372347,103.847898
Astons Express,"Heng Long Catering, Blk 1014 Upper Serangoon Road Stall 2",Under $10,,4,1.362668,103.888208
Astons - Kopitiam,"Singapore Post Centre, 10 Eunos Road 8 #B2-08",Under $10,,3.5,1.318727,103.893851
Astons Specialities,"Changi Airport Terminal 1, 80 Airport Boulevard #03-18 (Viewing Mall)",$11 - $20,,4,1.362591,103.990648
Astons Specialities,"Suntec City Mall, Wast Wing, 3 Temasek Boulevard #B1-161/162",$11 - $20,,3.5,1.293422,103.856858
Astons Specialities,"The Cathay, 2 Handy Road #04-03/04",$11 - $20,,4,1.299052,103.84788
Astons Specialities,"City Square Mall, 180 Kitchener Road #01-30/31",$11 - $20,,3.5,1.311361,103.856561
Astons Specialities,"Sembawang Shopping Centre, 604 Sembawang Road #B1-12/13/14",$11 - $20,,4,1.441732,103.824813
Astons Specialities,"Resorts World Sentosa, 26 Sentosa Gateway #01-40/41/42 (Waterfront)",$11 - $20,,4,1.25218,103.824175
Astons Specialities,"SAFRA Toa Payoh, 293 Lorong 6 Toa Payoh #01-05",$11 - $20,,3.5,1.355223,103.76615
Astons,Blk 167 Woodlands St 11 #01-07,Under $10,,3.5,1.433611,103.775885
Atlantic Mix Grill,"Suntec City Mall, 3 Temasek Boulevard #03-006",$11 - $20,Middle Eastern/Mediterranean,,1.293422,103.856858
ATLAS,"Parkview Square, 600 North Bridge Road",$51 - $80,,,1.300412,103.857302
Atlas Coffeehouse,6 Duke&#39;s Road,$11 - $20,English,4,1.281102,103.834189
atout,40C Harding Road,$81 - $150,"French, European",,1.30585,103.813498
Attica,"Clarke Quay, 3A River Valley Road #01-03",$31 - $50,Multi-Cuisine,,1.29003,103.844764
Auntie Anne&#39;s,"Great World City, 1 Kim Seng Promenade #01-K2",Under $10,American,4,1.293902,103.831787
Awe Desserts,"PoMo, 1 Selegie Road #02-09",Under $10,,,1.29991,103.849359
Awfully Chocolate,"Jurong Point, 63 Jurong West Central 3 #B1-79 (JP2)",Under $10,,4,1.338894,103.705622
Awfully Chocolate,131 East Coast Road,Under $10,Fusion,4,1.306185,103.90496
Awfully Chocolate,"ION Orchard, 2 Orchard Turn #B4-50",Under $10,,4,1.304082,103.832016
Awfully Chocolate,"VivoCity, 1 Harbourfront Walk #01-156",Under $10,French,4,1.263928,103.822229
Awfully Chocolate,"Sembawang Hills Estate, 4 Jalan Kuras",Under $10,,4,1.372651,103.829627
Axis Bar and Lounge,"Mandarin Oriental Singapore, 5 Raffles Ave",$31 - $50,,4,1.290661,103.858324
Ayam Penyet - Canteen 2,"NTU, Blk 41 Students Walk (Hall of Residence 2)",Under $10,Malay,3.5,1.348464,103.684201
Ayam Penyet Ria,"Far East Plaza, 14 Scotts Road #05-22",Under $10,Indonesian,3.5,1.307079,103.833146
Ayam Penyet Ria,"Lucky Plaza, 304 Orchard Road #01-042/047",Under $10,Indonesian,4,1.30459,103.83407
Ayza&#39;s Cafe,"Beauty World Centre, 144 Upper Bukit Timah Road #04-18",Under $10,"Indian, Singaporean",,1.342492,103.776647
Azmaya Honten,"Cuppage Plaza, 5 Koek Road #03-24 to 28",$31 - $50,Japanese,,1.301983,103.840726
Azmaya,30 Robertson Quay #01-12/13,$21 - $30,Japanese,4,1.291277,103.841351
Azucar,345 Beach Road,$21 - $30,"Spanish, Italian, Middle Eastern/Mediterranean, European, Fusion",,1.301474,103.861656
Azur Restaurant,"Crowne Plaza Changi Airport, 75 Airport Boulevard Level 2",$31 - $50,Multi-Cuisine,3.5,1.35868,103.987947
Azzura Gelato Cafe,"Katong V, 30 East Coast Road #01-01/02",$11 - $20,Australian / New Zealand,,1.30377,103.90291
B. Bakery,15 Bussorah St,$11 - $20,American,3.5,1.301233,103.860083
Ba Xian,"Tower Club, 9 Raffles Place #63",$21 - $30,Singaporean Chinese,,1.283039,103.850918
Baan Khun Nai Authentic Thai Cuisine,"The Odeon Katong, 11 East Coast Road #01-22",$11 - $20,Thai,3.5,1.304685,103.901889
Baba Chews,86 East Coast Road #01-01 Katong Square,$21 - $30,"Peranakan / Nonya, Singaporean Chinese",,1.30468,103.904727
Babalicious,"Marina Cove, 1000 East Coast Parkway, #01-02",$11 - $20,Peranakan / Nonya,,1.301237,103.912956
Babette Restaurant &amp; Bar,"Parc Sovereign Hotel,165 Tyrwhitt Road",$11 - $20,"French, European, Japanese",4,1.303595,103.851183
Backstage Cafe,"Performance Building, 158 Kallang Way #01-06",$21 - $30,,3.5,1.323146,103.876482
Badoque Caf&#233;,296 Upper Thomson Road,$11 - $20,"Fusion, Multi-Cuisine",3.5,1.353041,103.835133
Bai Nian,"Albert Centre Market &amp; Food Centre, 270 Queen St #01-58",Under $10,"Singaporean, Chinese",,1.345614,103.944627
Baikohken Ramen,"KINEX, 11 Tanjong Katong Road #01-67/68",$11 - $20,Japanese,,1.314639,103.894692
Baja Fresh,"Rendezvous Gallery, 9 Bras Basah Road, #01-03",$11 - $20,Mexican,3.5,1.298583,103.849316
BAKE Cheese Tart,"ION Orchard, #B4-33, 2 Orchard",Under $10,Japanese,,1.304082,103.832016
Bake Inc,"Gek Poh Shopping Centre, 762 Jurong West St 75 #01-314",Under $10,,,1.348681,103.697808
Bake Inc - Kopitiam,"Blk 275D Compassvale Link, #01-01",Under $10,,2.5,1.382792,103.894019
BakeBabe,"Far East Finance Building, 14 Robinson Rd #13-00",$31 - $50,,,1.28212,103.850714
Baker &amp; Cook,77 Hillcrest Road,$11 - $20,European,4,1.331606,103.807506
Baker &amp; Cook,"Clementi Arcade, 41 Sunset Way",$11 - $20,,,1.323361,103.767547
Baker &amp; Cook,"Chip Bee Gardens, 44 Jalan Merah Saga #01-56",$11 - $20,European,,1.311753,103.796821
Baker Talent,"Boon Lay Shopping Centre, 221 Boon Lay Place #01-154",Under $10,,4,1.346271,103.712393
Baker Talent,Blk 303 Chua Chu Kang Ave 4 #01-723,Under $10,,4.5,,
Baker Talent,Blk 846 Yishun Ring Road #01-3633,Under $10,,3.5,1.417172,103.834552
Baker&#39;s Oven Pattisieries,"SPC Bukit Panjang, 41 Bukit Panjang Ring Road",$11 - $20,Portuguese,4,1.383383,103.772722
Bakersworld,15-8 Jalan Riang Serangoon Park,$11 - $20,,,,
Bakery Artisan Original (BAO),"CT Hub, 2 Kallang Avenue #02-17",Under $10,,,1.325943,103.872234
Bakery &amp; Bar St Marc,"Parkland Green, 920 East Coast Parkway #01-09/10",$11 - $20,Japanese,,1.299244,103.906579
Bakery Cuisine,"Sembawang Shopping Centre, 604 Sembawang Road #B1-19",Under $10,Japanese,,1.441732,103.824813
BAKERZIN,"Jurong Point, 63 Jurong West Central 3 #03-58/59 (JP2)",$11 - $20,,4,1.338894,103.705622
BAKERZIN,"Paragon, 290 Orchard Road #02-09",$11 - $20,,4,1.303628,103.835548
BAKERZIN,"Century Square, 2 Tampines Central 5 #01-19/22",$11 - $20,,,1.352179,103.943933
BAKERZIN,"VivoCity, 1 Harbourfront Walk #01-207",$11 - $20,,4,1.263928,103.822229
BAKERZIN,"Northpoint, 930 Yishun Ave 2 #01-44",$11 - $20,,4,1.42846,103.836099
Balaclava,"Suntec City, North Wing, 3 Temasek Boulevard #01-434",$11 - $20,Fusion,,1.293422,103.856858
BALIthai,"West Mall, 1 Bukit Batok Central Link #03-03",$21 - $30,"Thai, Indonesian",3.5,1.350024,103.749229
BALIthai,"I12 Katong, 112 East Coast Road #02-11",$21 - $30,"Thai, Indonesian",4,1.305462,103.904652
BALIthai,"Nex, 23 Serangoon Central #02-13",$21 - $30,"Thai, Indonesian",3.5,1.351221,103.872292
Ballistic Meatballs,"Simpang Bedok, 348 Bedok Road #02-15",Under $10,,4,1.331217,103.948315
Ban Heng,"Orchard Central, 181 Orchard Road #11-01/02",$51 - $80,"Cantonese/Hong Kong, Teochew",3.5,1.300813,103.839903
Ban Heng,"Harbourfront Centre, 1 Maritime Square #04-01/02",$51 - $80,"Cantonese/Hong Kong, Teochew",3.5,1.264621,103.820249
Ban Mian - Cantine,"Jurong Point, 1 Jurong West Central 2 #B1-42/43/44 (JP1)",Under $10,,,1.322669,103.720709
Ban Mian . Fish . Seafood Soup - Kopitiam,"NUH Main Building 1, 5 Lower Kent Ridge Road, Kopitiam",Under $10,Singaporean,3.5,1.29645,103.78285
Ban Mian / Fish Soup,"Nanyang Polytechnic, 180 Ang Mo Kio Ave 8 (North Canteen)",Under $10,"Singaporean, Chinese",,1.380099,103.849099
Ban Mian / Fish Soup - Koufu,"Nanyang Polytechnic, 180 Ang Mo Kio Ave 8, Blk A Unit 235",Under $10,,3.5,1.380099,103.849099
Ban Mian / Fish Soup - Koufu,Blk 263 Compassvale St #01-09,Under $10,,,1.395222,103.895929
Ban Mian - Fountain Food Terrace,"Suntec City Mall, 3 Temasek Boulevard #B1-024/025/045 (Fountain Food Terrace)",Under $10,Singaporean,3.5,1.293422,103.856858
Ban Mian - Kopitiam,"IMM, 2 Jurong East St 21 #02-69",Under $10,"Singaporean, Chinese",,1.347118,103.728632
Ban Mian - Koufu,"Loyang Point, Blk 258 Pasir Ris St 21 #02-313",Under $10,"Singaporean, Chinese",,1.367093,103.964772
Ban Mian - Lucky Food Centre,"Lucky Plaza, 304 Orchard Road #B1-99/101",Under $10,,,1.30459,103.83407
Ban Mian - Matrix Cafeteria,"ITE College West, 1 Choa Chu Kang Grove",Under $10,,,1.373351,103.750556
Ban Tong Seafood Restaurant,"Rainbow Noodle Restuarant, Blk 378 Clementi Avenue 5 #01-334",Under $10,,,1.31755,103.767495
Bangkok Jam,"Plaza Singapura, 68 Orchard Road #03-85",$31 - $50,Thai,3,1.300005,103.844626
Bangkok Jam,"Jem, 50 Jurong Gateway Road #03-21",$31 - $50,Thai,3,1.333169,103.743536
Bangkok Jam,"Wheelock Place, 501 Orchard Road #02-04/05",$31 - $50,Thai,3.5,1.304811,103.831198
Bao Luo Wan Xiang - Kopitiam,"Manulife Centre, 51 Bras Basah Road #01-03",Under $10,"Cantonese/Hong Kong, Chinese",,1.297855,103.850276
Bao Today,"Rendezvous Hotel, 9 Bras Basah Road #01-02 (Rendezvous Gallery)",Under $10,,3,1.298583,103.849316
Bar Bar Black Sheep,86 Robertson Quay,$21 - $30,"Japanese, Indian",,1.289982,103.837328
Barcook Bakery,"Square 2, 10 Sinaran Drive #01-16/18",Under $10,,4,1.320635,103.844326
Barcook Bakery,"One Raffles Place, 1 Raffles Place #B1-03",Under $10,,,1.28453,103.850971
Barcook Bakery,"One Raffles Place, 1 Raffles Place #B1-09",Under $10,,4,1.28453,103.850971
Barcook Bakery,"Nex, 23 Serangoon Central #03-K18",Under $10,,,1.351221,103.872292
Bariuma,"United Square, 101 Thomson Road, #B1-08",$21 - $30,Japanese,,1.316866,103.84377
Basilico,"Regent Singapore, 1 Cuscaden Road",$31 - $50,"Italian, Middle Eastern/Mediterranean, European",4,1.304976,103.825429
Basilico,"Regent Singapore, 1 Cuscaden Road",$51 - $80,Italian,4,1.304976,103.825429
Baskin Robbins,"Bugis Junction, 200 Victoria St #01-60/60A",Under $10,,,1.298508,103.855434
Baskin Robbins,"Jem, 50 Jurong Gateway Road #02-06",Under $10,,4,1.333169,103.743536
Baskin Robbins,"Nex, 23 Serangoon Central #01-K4/K5",Under $10,,4,1.351221,103.872292
Baskin Robbins,"Tiong Bahru Plaza, 302 Tiong Bahru Road #01-07",Under $10,American,4,1.28643,103.827693
Basque Kitchen by Aitor,97 Amoy Street,$81 - $150,European,,1.281457,103.84719
Bay Sushi,"Marina Bay Sands, 10 Bayfront Avenue #B2-01B (The Shoppes)",$31 - $50,Japanese,3.5,1.283697,103.860723
Bayswater Kitchen,"Marina at Keppel Bay, 2 Keppel Bay Vista",$51 - $80,,,1.264079,103.812606
BBQ Chicken,"The Central, 6 Eu Tong Sen St #01-58",Under $10,Korean,,1.28878,103.846236
BBQ Chicken,"West Coast Plaza, 154 West Coast Road #02-45",Under $10,Korean,3.5,1.303708,103.766401
BBQ Chicken Wings - Food Republic,"313@Somerset, 313 Orchard Road #05-01",Under $10,,3,1.301114,103.838872
BBQ Chicken,"Northpoint, 930 Yishun Ave 2  #B2-17/20",Under $10,Korean,3.5,1.42846,103.836099
BBQ Express,"Bukit Panjang Plaza, 1 Jelebu Road #01-23",Under $10,,4,1.37956,103.764306
BBQ Seafood,"Gardens By The Bay, 18 Marina Gardens Drive (Satay by the Bay) #17",Under $10,,,1.284366,103.865426
BBQ Wholesale Centre,81 Frankel Avenue,$11 - $20,"Malay, Singaporean",4.5,1.31522,103.919125
BCC Tea Studio,"84 Bedok North Street 4, #01-29",Under $10,,,1.331848,103.939412
Beach Culture Watercross,"Pasir Ris Park, 131 Pasir Ris Road",$21 - $30,European,,1.385583,103.943738
Beach Road Kitchen,"JW Marriott Singapore South Beach, 30 Beach Road",$81 - $150,Multi-Cuisine,,1.294001,103.85592
Beach Road Prawn Noodle House,370/372 East Coast Road,Under $10,,3.5,1.308519,103.911126
Beach Road Scissor-Cut Curry Rice,229 Jalan Besar,Under $10,,3.5,1.309522,103.857743
Beans &amp; Cream,Blk 347 Bukit Batok St 34 #01-260,Under $10,"Singaporean, Singaporean Western",4,1.36252,103.751375
Bear Baby Spicy Fragrant Pot,"602B Tampines Ave 9, Stall 2",$11 - $20,Sichuan,,1.361361,103.93766
Bear Bites,"MDIS Campus, 501 Stirling Road",Under $10,Taiwanese,,1.297502,103.800544
Bear Paw,"Jurong Point, 1 Jurong West Central 2 #01-17H (JP1)",Under $10,Taiwanese,,1.322669,103.720709
Beard Papa&#39;s,"Nex, 23 Serangoon Central #03-K15",Under $10,Japanese,4,1.351221,103.872292
Beast &amp; Butterflies,90 Robertson Quay,$31 - $50,"Western Variety, Asian Variety",,1.290326,103.83686
Beast &amp; Butterflies,90 Robertson Quay,$51 - $80,Multi-Cuisine,,1.290326,103.83686
Beauty in the Pot,"OneKM Mall, 11 Tanjong Katong Road #02-21/22",$31 - $50,,,1.314965,103.894924
Beaver&#39;s Pub and Grill,33 Liang Seah St #01-01/02,$11 - $20,American,3,1.298229,103.856056
Bebek Goreng Pak Ndut,"304 Orchard Road, #01-42/43/44 Lucky Plaza",Under $10,Indonesian,,1.30429,103.834036
Becasse,10 Dempsey Road #01-21,$11 - $20,"French, Middle Eastern/Mediterranean, European",3.5,1.303287,103.810502
Bedok 456 Mee Hoon Kway,"Kim Keat Palm Market &amp; Food Centre, Blk 22 Lorong 7 Toa Payoh #01-46",Under $10,"Singaporean, Chinese",,1.335532,103.85695
Bedok Chwee Kueh,"Bedok Interchange Hawker Centre, 208 New Upper Changi Road, #01-19",Under $10,Singaporean Chinese,,1.324614,103.930571
Bedok North 85 Fried Oysters,"Kovan Hougang Market &amp; Food Centre, 209 Hougang St 21 #01-30",Under $10,Singaporean,3.5,1.359155,103.885976
Bee Bee Carrot Cake,50A Marine Terrace #01-275,Under $10,,,1.305225,103.915824
Bee Cheng Hiang,"Paragon, 290 Orchard Road #B1-10A",$11 - $20,,,1.303628,103.835548
Bee Cheng Hiang,"East Link Mall, 8 Tampines Central 1 #01-14",$11 - $20,,,,
Bee Garden,"Commonwealth Crescent Market &amp; Food Centre, 31 Commonwealth Crescent #02-78",Under $10,,4,1.320355,103.904429
Bee Heong Palace Restaurant,218 Bedok North Street 1 #01-01,$31 - $50,"Fujian/Heng Hwa, Chinese",,1.327345,103.933787
Bee Kee Cooked Food,"Chong Pang Market &amp; Food Centre, 104/105 Yishun Ring Road #01-144",Under $10,Singaporean,,1.431778,103.825807
Beer Market,"The Foundry, 3B River Valley Road #01-17/02-02",$21 - $30,Multi-Cuisine,4,1.290312,103.846721
Beirut,72 Bussorah Street,$31 - $50,Middle Eastern/Mediterranean,,1.300815,103.859957
Bel Mondo,"Millenia Walk, 9 Raffles Boulevard #01-09",$11 - $20,"Italian, Middle Eastern/Mediterranean",,1.292083,103.859414
Bella Pasta,"Riverside View, 30 Robertson Quay, #01-09",$51 - $80,Italian,,1.291277,103.841351
Bella Pizza,"Riverside Village Residences, 30 Robertson Quay #01-14",$21 - $30,Italian,4,1.29112,103.84114
belle-ville Pancake Cafe,"Square 2, 10 Sinaran Drive, #01-152 to 154",Under $10,Japanese,,1.320635,103.844326
Ben &amp; Jerry&#39;s,"Raffles City Shopping Centre, 252 North Bridge Road #B1-80",$11 - $20,,4,1.293883,103.853502
Ben &amp; Jerry&#39;s,"Jurong Bird Park, 2 Jurong Hill",$11 - $20,,3.5,1.318829,103.708359
Ben &amp; Jerry&#39;s,"Great World City, 1 Kim Seng Promenade #02-40A/B",$11 - $20,,4,1.293902,103.831787
Bengawan Solo,"Anchorpoint, 370 Alexandra Road #B1-45",Under $10,Peranakan / Nonya,3.5,1.28871,103.805077
Bengawan Solo,"West Mall, 1 Bukit Batok Central Link #B1-02",Under $10,Peranakan / Nonya,4,1.350024,103.749229
Bengawan Solo,"Changi Airport Terminal 3, 65 Airport Boulevard #02-MN-52 (Departure Check In Hall)",Under $10,Peranakan / Nonya,,1.353943,103.985131
Bengawan Solo,Blk 18 Tai Thong Crescent,Under $10,Peranakan / Nonya,,1.329243,103.869642
Beng&#39;s Old School Bak Kut Teh,Block 40 Holland Drive #01-39 Store 5,Under $10,,,1.307191,103.793489
Benjamin Browns Bistro &amp; Bakery,"Forum The Shopping Mall, 583 Orchard Road #01-20/21",Under $10,European,3.5,1.306024,103.828854
Benson Salted Duck Rice,"Blk 168, Toa Payoh Lorong 1 #01-1040",Under $10,Teochew,,1.331866,103.843449
Benten Caf&#233;,"Jurong Point, 1 Jurong West Central 2 #03-20/20A/K4 (JP1)",$11 - $20,"Italian, Japanese, Fusion",4,1.322669,103.720709
Beppu Menkan Japanese Noodles ,"Tiong Bahru Plaza, 302 Tiong Bahru Road, #02-16/17/18",$11 - $20,Japanese,3.5,1.28643,103.827693
Bergs Gourmet Burgers,45 East Coast Road,$11 - $20,Australian / New Zealand,3.5,1.304997,103.902999
Berrylite,"One Raffles Place, 1 Raffles Place #B1-10",Under $10,Singaporean,4,1.28453,103.850971
Berrylite,"Northpoint, 930  Yishun Ave 2 #01-56",Under $10,,4,1.42846,103.836099
Best Fries Forever,"Cathay Cineleisure Orchard, 8 Grange Road #B1-06",Under $10,American,3.5,1.301454,103.836467
Beverage,Blk 478 Tampines St 44,Under $10,Singaporean,,1.389546,103.772988
Beverages,"51@AMK, 51 Ang Mo Kio Avenue 3 #01-03",Under $10,,,1.369305,103.847296
Beverages,"Fu Chan, Blk 727 Ang Mo Kio Avenue 6",Under $10,,,1.43134,103.82811
Beverages/Fruits - Flavours Food &amp; Beverages,"Temasek Polytechnic, 21 Tampines Avenue 1 (Block 4)",Under $10,,,1.366461,103.926128
Beverages - Kopitiam,"KK Women&#39;s And Children&#39;s Hospital, 100 Bukit Timah Road #01-28",Under $10,,,1.313445,103.899621
Beverages - Kopitiam,"Manulife Centre, 51 Bras Basah Road #01-03",Under $10,,,1.297855,103.850276
Beverages,Blk 205D Compassvale Lane,Under $10,,,1.386174,103.897541
Beverages,"Istanbul, Blk 476 Tampines St 44 #01-203",Under $10,,,1.346631,103.94402
Beverages,"419 F&amp;B, Blk 419 Tampines St 41 #01-80",Under $10,,,1.353464,103.98857
Bibigo,"Suntec City Mall, East Wing, 3 Temasek Boulevard #B1-107",$11 - $20,Korean,3.5,1.293422,103.856858
Bibigo,"Nex, 23 Serangoon Central #03-08",$11 - $20,Korean,3.5,1.351221,103.872292
BiBiQiu,"The Central, 6 Eu Tong Sen St",Under $10,"Korean, Fusion",,1.28878,103.846236
Big Bites - Kopitiam,"Tampines Mall, 4 Tampines Central 5 #04-27/29",$11 - $20,Indian,,1.352645,103.94473
Big Eater,Blk 964 Jurong West St 91 #01-342,$11 - $20,,3.5,1.342141,103.692677
Big Mama Korean Food,2 Kim Tian Road,$31 - $50,Korean,3.5,1.28525,103.829252
Billy Bombers American Diner,"Jurong Point, 1 Jurong West Central 2 #02-20E (JP1)",$11 - $20,American,4,1.322669,103.720709
Bincho at Hua Bee,78 Moh Guan Terrace #01-19,$51 - $80,Japanese,,1.283499,103.830404
Birdcage Bistro,312 Old Birdcage Walk #02-08,,American,,1.409866,103.871037
Birds of a Feather,"115 Amoy Street, #01-01",$31 - $50,"Singaporean Western, Fusion",,1.282247,103.847646
Biscuit King,130 Casuarina Road,Under $10,,4,1.37691,103.828086
Bishamon,"Bukit Panjang Plaza, 1 Jelebu Road #01-64/65",$11 - $20,Japanese,3,1.37956,103.764306
Bishamon,"Great World City, 1 Kim Seng Promenade #01-21B",$11 - $20,Japanese,3.5,1.293902,103.831787
Bismillah Biryani Restaurant,50 Dunlop Street,Under $10,Indian,2.5,1.305051,103.853694
Bistecca Tuscan Steakhouse,26 Mohamed Sultan Road,$51 - $80,"Italian, Middle Eastern/Mediterranean, European",4.5,1.293432,103.841182
Bistro 103,103 Pasir Panjang Road,$31 - $50,,4,1.275049,103.79478
Bistro du Vin,"Shaw Centre, 1 Scotts Road #01-14",$31 - $50,"French, Middle Eastern/Mediterranean, European",4,1.306359,103.831646
Bistro du Vin,"Shaw Centre, 1 Scotts Road #01-14",$51 - $80,French,4,1.306359,103.831646
Bistroquet,"Alexandra Retail Centre, 460 Alexandra Road #02-20",$11 - $20,"French, Middle Eastern/Mediterranean, European",,1.27393,103.801594
Bite Club,Blk 34 Jalan Bukit Ho Swee #01-864,Under $10,,4,1.347345,103.686856
Bitters &amp; Love,118 Telok Ayer Street,$21 - $30,,,1.282011,103.848149
BJ&#39;s American Diner and Grill,312 Balestier Road #01-01,$21 - $30,American,4,1.323536,103.8524
Black Angus,"Hill V2, 4 Hillview Rise #01-06/07",$21 - $30,,,1.363754,103.764391
Black Canyon Coffee,"The Connexis, 1 Fusionopolis Way #02-01/02",$11 - $20,"Thai, Fusion, Multi-Cuisine",4,1.299469,103.787506
Black&amp;Ink,168 Changi Road #01-01/02,Under $10,,4,1.316915,103.902803
Black&amp;Ink,29 Swan Lake Avenue,$11 - $20,,,1.321589,103.923936
Black Society,"VivoCity, 1 Harbourfront Walk #02-156/157",$21 - $30,Cantonese/Hong Kong,4,1.263928,103.822229
Black &amp; White Dessert House,"Sembawang Shopping Centre, 604 Sembawang Road #B1-K3",Under $10,Taiwanese,,1.441732,103.824813
BlackBall,"Bedok Mall, 311 New Upper Changi Road #01-03",Under $10,Taiwanese,,1.324493,103.929484
BlackBall,"Bugis+, 201 Victoria St #01-14",Under $10,Taiwanese,3.5,1.300152,103.856221
BlackBall,"The Star Vista, 1 Vista Exchange Green #02-14/15",Under $10,Taiwanese,4,1.306871,103.78857
BlackBall,"IMM, 2 Jurong East St 21 #01-48",Under $10,Taiwanese,3.5,1.347118,103.728632
BlackBall,"Tampines 1, 10 Tampines Central 1 #02-K2",Under $10,Taiwanese,,1.367228,103.928218
BlackBall,"Harbourfront Centre, 1 Maritime Square #02-01/02",Under $10,Taiwanese,3.5,1.264621,103.820249
Blanco Court Food Centre (3rd Storey),"51 Old Airport Road Food Centre &amp; Shopping Mall, 51 Old Airport Road #135",Under $10,Teochew,4.5,1.280455,103.844656
Blanco Court Prawn Mee,245 Beach Road,Under $10,Singaporean Chinese,3.5,1.300277,103.859569
Blanco Prawn Noodle House,235 Jalan Kayu,Under $10,Singaporean,3.5,1.396144,103.872821
Bliss Restaurant,"Cheng San Community Club, Blk 6 Ang Mo Kio St 53 #01-01",Under $10,European,3.5,1.36917,103.848432
Blisshouse,"The Central, 6 Eu Tong Sen St #03-21",$11 - $20,European,3.5,1.28878,103.846236
BlooiE&#39;s Roadhouse Bar &amp; Grill,"The Rail Mall, 426/428 Upper Bukit Timah Road",$11 - $20,American,4,1.359803,103.767623
BlooiE&#39;s Roadhouse Bar &amp; Grill,"Science Park II, 21 Science Park Rd #01-01 (The Aquarius)",$11 - $20,American,4,1.2877,103.781524
Bloomsbury Bakers,Blk 30 Bendemeer Road,Under $10,,3.5,1.319284,103.864023
Blue Bali,"Singapore Botanic Gardens, House 1D Cluny Road Level 1",$31 - $50,Indonesian,4,1.314914,103.816051
Bobby&#39;s Restaurant and Bar,"Chijmes, 30 Victoria St #B1-07",$31 - $50,Multi-Cuisine,,1.295136,103.851929
Bochinche,22 Martin Road,$31 - $50,,4,1.291884,103.838507
Bollywood Veggies Poison Ivy Bistro,"Bollywood Veggies, 100 Neo Tiew Road",Under $10,Indian,4,1.418068,103.717349
Bonchon,"Bugis+, 201 Victoria St #01-11",$21 - $30,Korean,3.5,1.300152,103.856221
Boneless Hainanese Chicken Rice,"Redhill Food Centre, Blk 85 Redhill Lane #01-23",Under $10,Hainanese,,1.287312,103.818335
Bonta Italian Restaurant &amp; Bar,"UE Square, 207 River Valley Road #01-61 (River Wing)",$31 - $50,"Italian, Middle Eastern/Mediterranean, European",4,1.292042,103.842617
Boon Kee Wanton Noodle,"Clementi 448 Market &amp; Food Centre, Blk 448 Clementi Ave 3 #01-40",Under $10,Cantonese/Hong Kong,3.5,1.313335,103.764554
Boon Lay Power Nasi Lemak,"Boon Lay Place Food Village, 221A/B Boon Lay Place #01-106",Under $10,,4,1.345218,103.712784
Boon Lay Raja Restaurant,"Blk 135, Jurong Gateway Road #02-337",$31 - $50,,3.5,1.333911,103.739826
Boon Tat Street BBQ Seafood,"Chinatown Food Street, 335 Smith St #1",$11 - $20,,,1.28205,103.84462
Boon Tong Kee,Blk 233 Ang Mo Kio Ave 3 #01-1194,$11 - $20,"Cantonese/Hong Kong, Hainanese",3.5,1.367579,103.836733
Boon Tong Kee,18 Cheong Chin Nam Road,$11 - $20,Cantonese/Hong Kong,3.5,1.343371,103.775077
Boon Tong Kee,199 East Coast Road,$11 - $20,"Cantonese/Hong Kong, Hainanese",4,1.307274,103.906577
Boon Tong Kee,470 MacPherson Road,$11 - $20,"Cantonese/Hong Kong, Hainanese",4.5,1.331969,103.882778
Boon Tong Kee,425 River Valley Road,$11 - $20,Cantonese/Hong Kong,4,1.295101,103.829464
Boon Tong Kee,Blk 34 Whampoa West #01-93,$11 - $20,"Cantonese/Hong Kong, Hainanese",3.5,1.31989,103.86245
Bornga,"The Star Vista, 1 Vista Exchange Green #02-24",$21 - $30,Korean,4,1.306871,103.78857
Bornga,"VivoCity, 1 Harbourfront Walk ##02-123/124",$21 - $30,Korean,3,1.263928,103.822229
Boruto,"Golden Castle Building, 80 South Bridge Road #01-01",$21 - $30,"Spanish, Japanese, Fusion",3.5,1.286809,103.847743
Botak Jones,Blk 181 Ang Mo Kio Ave 5,Under $10,American,3.5,1.37679,103.837146
Botak Jones,Blk 233 Bukit Batok East Ave 5 #01-53,Under $10,American,3.5,1.355386,103.868925
Botak Jones - Kopitiam,"National Youth Park, 121 Somerset Road",Under $10,American,3.5,1.300496,103.836578
Botak Jones,Blk 211 Toa Payoh Lorong 8 #01-01,Under $10,American,3.5,1.340425,103.853772
Botak&#39;s Favorites,"Food King Coffee House, Blk 233 Bukit Batok East Ave 5",Under $10,American,,1.348704,103.75549
Botan Japanese Restaurant,"Far East Square, 36 Pekin St #01-01",$21 - $30,Japanese,3.5,1.283288,103.848191
Botejyu Yatai - Food Junction,"Junction 8, 9 Bishan Place #04-01",Under $10,Japanese,,1.350045,103.848304
Bottura,"Suntec City Mall, Noth Wing, 3 Temasek Boulevard #02-472/473/474",$21 - $30,Italian,3.5,1.293422,103.856858
Brasserie Gavroche,66 Tras St,$31 - $50,"French, Middle Eastern/Mediterranean, European",,1.277724,103.844094
Brasserie Les Saveurs,"The St Regis Singapore, 29 Tanglin Road",$51 - $80,French,4,1.305758,103.826036
Brawn &amp; Brains,100 Guillemard Road #01-02,Under $10,,4,1.310054,103.88206
Bread &amp; Hearth,18 Keong Saik Road,Under $10,European,,1.279948,103.841658
Bread Yard,"Galaxis, 1 Fusionopolis Place #01-23/24",Under $10,,4.5,1.300047,103.78835
BreadTalk,"AMK Hub, 53 Ang Mo Kio Ave 3 #01-01",Under $10,,3.5,1.36926,103.849189
BreadTalk,"ZhongShan Mall, 20 Ah Hood Road #01-10/11/12/13",Under $10,,,1.327182,103.84669
BreadTalk,"Junction 8 Shopping Centre, 9 Bishan Place #01-35/36",Under $10,,4,1.350045,103.848304
BreadTalk,"Bugis Junction, 200 Victoria Street, #B1-K28/29",Under $10,Singaporean,3,1.298508,103.855434
BreadTalk,"Chinatown Point, 133 New Bridge Road #01-27/28",Under $10,,,1.285849,103.84517
BreadTalk,"CityLink Mall, 1 Raffles Link #B1-42",Under $10,,4,1.292364,103.854457
BreadTalk,"The Clementi Mall, 3155 Commonwealth Ave West #01-01",Under $10,,4,1.314791,103.764247
BreadTalk,"Westgate, 3 Gateway Drive #02-03",Under $10,,,1.334461,103.742801
BreadTalk,"Marina Bay Link Mall, 8A Marina Boulevard #B2-18",Under $10,,4,1.281203,103.853251
BreadTalk,"Novena Square Velocity, 238 Thomson Road #01-26",Under $10,,3.5,1.32044,103.843556
BreadTalk,"Wisma Atria, 435 Orchard Road #B1-55/60",Under $10,,4,1.303704,103.833284
BreadTalk,"Paragon, 290 Orchard Road #B1-11/12",Under $10,,3.5,1.303628,103.835548
BreadTalk,"Resorts World Sentosa, 8 Sentosa Gateway #B1-203/204 (The Forum)",Under $10,,4,1.25218,103.824175
BreadTalk,"Nex, 23 Serangoon Central #B2-58/59",Under $10,,4,1.351221,103.872292
BreadTalk,"BreadTalk IHQ, 30 Tai Seng St #01-04",Under $10,,3,1.334361,103.889591
BreadTalk,"VivoCity, 1 Harbourfront Walk #B2-34",Under $10,,3.5,1.263928,103.822229
BreadTalk,"HDB Hub, Blk 530 Lorong 6 Toa Payoh #01-04",Under $10,,3.5,1.331922,103.848506
BreadTalk,"Northpoint, 930 Yishun Ave 2 #01-03/04",Under $10,,3.5,1.42846,103.836099
Breeks Cafe,"Marina Square, 6 Raffles Boulevard #02-07",$11 - $20,,3.5,1.291914,103.856261
Breeks Cafe,"Ngee Ann City, 391 Orchard Road #05-10/11",$11 - $20,American,3.5,1.302664,103.834623
Brew &amp; Bar,6 Jalan Pari Burong,$11 - $20,Peranakan / Nonya,,1.333485,103.948042
Brewerkz,"Riverside Point, 30 Merchant Road #01-05/06",$31 - $50,American,4,1.289315,103.844203
Bricks N Cubes Cafe,"The Cathay, 2 Handy Road #02-12/14",$11 - $20,,2.5,1.299052,103.84788
Bridge,31 Seah St,$21 - $30,French,3.5,1.296154,103.854832
Brizo Restaurant &amp; Bar,"Park Hotel Clarke Quay, 1 Unity St",$11 - $20,Multi-Cuisine,3.5,1.291546,103.842327
Brotzeit&#174; German Bier Bar &amp; Restaurant,"Raffles City Shopping Centre, 252 North Bridge Road #01-17",$21 - $30,German,4,1.293883,103.853502
Brotzeit&#174; German Bier Bar &amp; Restaurant,126 East Coast Road,$21 - $30,"German, European",,1.305919,103.905228
Brotzeit&#174; German Bier Bar &amp; Restaurant,"313@Somerset, 313 Orchard Road #01-27",$21 - $30,German,4,1.301114,103.838872
Brotzeit&#174; German Bier Bar &amp; Restaurant,"VivoCity, 1 Harbourfront Walk #01-149-151",$21 - $30,"German, European",4,1.263928,103.822229
Brunches Caf&#233;,96 Rangoon Road,$11 - $20,,3.5,1.314707,103.854108
Brunetti,"Tanglin Mall, 163 Tanglin Road #01-35",$11 - $20,Italian,3.5,1.304787,103.82383
Brussels Sprouts @ Big Splash,"Big Splash, 902 East Coast Parkway #01-27 (Block F)",$31 - $50,Belgian,3.5,1.297928,103.900372
Brussels Sprouts @ Robertson Quay,"The Pier at Robertson, 80 Mohamed Sultan Road #01-12",$31 - $50,Belgian,3.5,1.291494,103.840669
Brussels Sprouts @ Sentosa,"Quayside Isle, 31 Ocean Way #01-01",$31 - $50,Belgian,4.5,1.247233,103.842222
BuckTile St. Cafe,104 Faber Drive,$11 - $20,,,1.32059,103.756639
Buddy Hoagies,"Nee Soon CC, 30 Yishun Street 81",$11 - $20,,3.5,1.427499,103.838733
Buddy Kitchen,Blk 511 Bishan St 13,$11 - $20,,,1.349221,103.849909
Buddy Kitchen,Blk 205D Compassvale Lane #01-02,$11 - $20,,,1.386174,103.897541
Buffet City,"Tanjong Pagar Community Centre, 101 Cantonment Road #01-04",$11 - $20,Multi-Cuisine,3.5,1.276279,103.841571
Buffet Town,"Raffles City Shopping Centre, 252 North Bridge Road #B1-44E",$21 - $30,Multi-Cuisine,4,1.293883,103.853502
Bugis Street Ming Kee Chicken Rice &amp; Porridge,"Kim San Leng Food Centre, Blk 511 Bishan St 13 #01-522",Under $10,,3.5,1.349221,103.849909
Bukang Tuna,"Red Dot Traffic Building, 28 Maxwell Road #01-06",$21 - $30,Korean,,1.278013,103.845326
Bun Master,Blk 192 Lorong 4 Toa Payoh #01-672,Under $10,,,1.331604,103.850329
Burger King,"Bukit Panjang Plaza, 1 Jelebu Road #01- 28",Under $10,American,,1.37956,103.764306
Burger King,"Singapore Changi Airport, Terminal 1 #03-02",Under $10,American,,1.26176,103.830712
Burger King,"Changi Airport Terminal 2, 60 Airport Boulevard #026-016 (Departure Check In Hall)",Under $10,American,3.5,1.35538,103.988358
Burger King,"Esplanade Xchange, 90 Bras Basah Rd #B1-27/28",Under $10,American,4,1.292859,103.855236
Burger King,"The Central, 6 Eu Tong Sen St #01-23/26",Under $10,American,4,1.28878,103.846236
Burger King,"Jem, 50 Jurong Gateway Road #B1-02",Under $10,American,3.5,1.333169,103.743536
Burger King,"IMM, 2 Jurong East St 21 #01-51",Under $10,American,,1.347118,103.728632
Burger King,"Pasir Ris Sports Centre, 120 Pasir Ris Central, #01-11",Under $10,American,,1.374087,103.951983
Burger King,"Income @ Raffles, 16 Collyer Quay #01-01/02",Under $10,American,,1.284222,103.852367
Burger King,"Nex, 23 Serangoon Central #B2-50/51",Under $10,American,3.5,1.351221,103.872292
Burger King,"Cathay Cineleisure Orchard, 8 Grange Road #01-07",Under $10,American,3.5,1.301454,103.836467
Burger King,"Tampines North Community Club, 2 Tampines St 41 #01-02",Under $10,American,3,1.35984,103.94623
Burger King,"HDB Hub, 530 Toa Payoh Lorong 6 #01-05",Under $10,American,3.5,1.331922,103.848506
BurgerLabo,"Gillman Barracks, 41 Malan Road",$21 - $30,Singaporean Western,,1.275358,103.804209
Burgernomics,"Pasir Ris Central Hawker Centre, 110 Pasir Ris Central, #02-03",Under $10,,,1.373306,103.951647
BurgerUp,"Hill V2, 4 Hillview Rise #01-11",$11 - $20,,,1.363754,103.764391
Burlamacco Ristorante,30 Stanley Street,$11 - $20,"Italian, Middle Eastern/Mediterranean, European",4.5,1.281013,103.848302
Burnt Ends,20 Teck Lim Road,$51 - $80,Multi-Cuisine,,1.280557,103.841904
Burp Kitchen &amp; Bar,740 Bedok Reservoir Road #01-3165,$11 - $20,Fusion,,1.338117,103.922639
Buta Ramen,"Far East Square, 137 Amoy St #01-04",$11 - $20,Japanese,,1.283288,103.848191
Butler&#39;s Steakbar,4 Jiak Chuan Road,$31 - $50,,,1.279609,103.841789
Butter Studio,147 Jalan Besar,$11 - $20,,,1.307176,103.856241
Buttercake N Cream,Blk 106 Clementi St 12 #01-52,$11 - $20,"Italian, Middle Eastern/Mediterranean, European",3.5,1.353864,103.891122
By The Fire,125 East Coast Road,$11 - $20,,,1.306087,103.904654
Caesar Grill,"Ocean 92 Eating House, 92 Lorong 4 Toa Payoh #01-264",Under $10,,,1.338062,103.849446
Cafe 2000,"M Hotel, 81 Anson Road",$21 - $30,Multi-Cuisine,3.5,1.290778,103.839076
Caf&#233; by Plain Vanilla,"ION Orchard, In Good Company, 2 Orchard Turn #B1-06",$11 - $20,,,1.303982,103.831642
Cafe De Hong Kong,"Eastpac Building, 586 Balestier Road #01-01",$21 - $30,Cantonese/Hong Kong,4,1.326825,103.843357
Cafe De Nicole’s Flower,"UNI Building, 224 Telok Kurau Road, #01-01",$11 - $20,Singaporean Western,,1.311404,103.910834
Caf&#233; Epicurious,"The Quayside, 60 Robertson Quay #01-02",$11 - $20,"American, Fusion",3.5,1.290185,103.839111
Cafe Etc,203 Upper Thomson Rd,$31 - $50,Multi-Cuisine,,1.351935,103.835152
Caf&#233; Iguana,"Riverside Point, 30 Merchant Road #01-03",$11 - $20,"Latin American/South American, Mexican",4,1.289315,103.844203
Cafe Insa-Dong,279 South Bridge Road,Under $10,Korean,3,1.281723,103.845225
Caf&#233;&amp;Meal MUJI,"Paragon, 290 Orchard Road #04-36",Under $10,"Japanese, Fusion",,1.303628,103.835548
Caf&#233; Melba,"Goodman Arts Centre, 90 Goodman Road #01-56 (Block N)",$31 - $50,Australian / New Zealand,3.5,1.303938,103.884968
Caf&#233; Mondo,"Orchard Central, 181 Orchard Road #02-31/32",Under $10,,,1.300813,103.839903
Cafe Pal,43 Middle Rd,$11 - $20,Thai,3,1.29975,103.852152
Cafe Rouge,20 Baghdad Street,$11 - $20,French,,1.301127,103.859811
Caf&#233; Swiss,"Swissotel The Stamford, 2 Stamford Rd Level 2",$21 - $30,"Swiss, European",4,1.293258,103.853383
Cafebiz,"Hotel Jen Tanglin Singapore, 1A Cuscaden Road (Lobby)",$51 - $80,Multi-Cuisine,4,1.304542,103.824807
Caffe B,"Marina Bay Sands, 2 Bayfront Avenue #B1-15 (The Shoppes)",$51 - $80,"Italian, Fusion",4,1.283697,103.860723
Caffebene,"VivoCity, 1 HarbourFront Walk #02-150",$11 - $20,Korean,,1.263928,103.822229
"Cai Yu Pian, Niu Rou, Xian Xia, Zha Jin He Fen","Yuhua Village Market &amp; Food Centre, Blk 254 Jurong East St 24 #01-14",Under $10,"Singaporean, Chinese",,1.343492,103.737854
Cake History,"Pioneer MRT, Jurong West St 63 #02-02",Under $10,,4.5,1.337582,103.697878
Cake History,"HDB Hub, Blk 520 Lorong 6 Toa Payoh #01-60",Under $10,,3.5,1.331922,103.848506
Cake Love,4 Jalan Pisang,$11 - $20,,,1.303191,103.858788
Cake Spade,83 Tanjong Pagar Road,Under $10,Western Variety,3.5,1.27781,103.843734
Cakestand,"Katong Shopping Centre, 865 Mountbatten Road #B1-126",$11 - $20,,,1.30382,103.901013
Cali Cafe,"Rochester Mall, 31 Rochester Drive #01-01",$21 - $30,American,3.5,1.305607,103.788051
California Pizza Kitchen,"Forum The Shopping Mall, 583 Orchard Road #01-42",$21 - $30,American,4,1.306024,103.828854
Campus Deli,"Ngee Ann Polytechnic, Blk 535 Clementi Road #01-13 (Blk 1, Atrium)",Under $10,Multi-Cuisine,3,1.33344,103.773862
Candlenut,17A Dempsey Road,$21 - $30,Peranakan / Nonya,4,1.305594,103.810379
Canele Patisserie Chocolaterie,"The Atrium @ Orchard, 68 Orchard Road #01-55",$11 - $20,,3.5,1.299449,103.845479
Canele Patisserie Chocolaterie,"Paragon, 290 Orchard Road #B1-K8",$11 - $20,,3.5,1.303628,103.835548
Canopy Garden Dining &amp; Bar,"Bishan Park II, 1382 Ang Mo Kio Ave 1",$31 - $50,Western Variety,4,1.362481,103.847352
Canton Paradise,"Alexandra Retail Centre, 460 Alexandra Road #02-30",$11 - $20,Cantonese/Hong Kong,,1.27393,103.801594
Canton Paradise,"AMK Hub, 53 Ang Mo Kio Ave 3 #B2-01/02",$11 - $20,Cantonese/Hong Kong,3.5,1.36926,103.849189
Canton Paradise,"Bedok Mall, 311 New Upper Changi Road #B2-10/11",$11 - $20,Cantonese/Hong Kong,,1.324493,103.929484
Canton Paradise,"The Star Vista, 1 Vista Exchange Green #B1-45/46",$11 - $20,Cantonese/Hong Kong,4,1.306871,103.78857
Canton Paradise,"JCube, 2 Jurong East Central 1 #02-09",$11 - $20,Cantonese/Hong Kong,3.5,1.333129,103.740221
Canton Paradise,"I12 Katong, 112 East Coast Road #B1-15",$11 - $20,Cantonese/Hong Kong,4,1.305462,103.904652
Cantonese Seng Kee Wanton Noodles,"ABC Brickworks Food Centre, Blk 6 Jalan Bukit Merah #01-111",Under $10,Cantonese/Hong Kong,3.5,1.286887,103.808075
Capricciosa,"JCube, 2 Jurong East Central 1 #01-05",$11 - $20,"Italian, European",3.5,1.333129,103.740221
Captain Leo,"I12 Katong Mall, East Coast Road #B2-24",$11 - $20,,,1.312229,103.92262
Captain&#39;s Table,"Raffles Marina Club House, Blk 10 Tuas West Drive",$21 - $30,,,1.341588,103.63509
Careshop de Caf&#233;,"The Luzerne, 70 Bendemeer Road #01-05",$11 - $20,Japanese,3,1.316246,103.862595
Carne &amp; Caipirinha,"Sunset Way, Blk 106 Clementi St 12 #01-50",$51 - $80,Latin American/South American,3.5,1.32196,103.769586
Carnivore Brazilian Churrascaria,"Chijmes, 30 Victoria St #01-30",$51 - $80,Latin American/South American,4,1.295136,103.851929
Carnivore Brazilian Churrascaria,"Marina Bay Sands, 2 Bayfront Avenue #01-80 (The Shoppes)",$51 - $80,Latin American/South American,4,1.283697,103.860723
Carol Mel Cafe,"The Commerze@Irving, 1 Irving Place #01-30",$11 - $20,,,1.336148,103.88628
Carousel,"25 Scotts Rd, Lobby Level, Royal Plaza on Scotts",$81 - $150,Multi-Cuisine,4,1.306944,103.831964
Carpenter and Cook,19 Lorong Kilat #01-06,Under $10,,3.5,1.340843,103.773638
Carrara Cafe,"2 Jalan Bukit Merah, #01-5148",$11 - $20,Fusion,,1.286964,103.806347
Carrot Cake . Popiah,"Tiong Bahru Market, 30 Seng Poh Road #02-83",Under $10,,4,1.284759,103.832679
Carrot Cake,"Chomp Chomp Food Centre, 20 Kensington Park Road #01-36",Under $10,,4,1.364233,103.866536
Carvers &amp; Co,43 East Coast Road,$21 - $30,,,1.304901,103.903013
Casa Italia,"Jurong Point, 63 Jurong West Central 3 #03-32/33 (JP2)",Under $10,Italian,3.5,1.338894,103.705622
Casa Italia,"Bugis+, 201 Victoria St #01-07",Under $10,Italian,3.5,1.300152,103.856221
Casa Italia,"Causeway Point, 1 Woodlands Square #01-K04",Under $10,Italian,,1.436185,103.785816
Casa Tartufo,"Forum The Shopping Mall, 583 Orchard Road #01-17",$31 - $50,"Italian, European",4,1.306024,103.828854
Casuarina Curry,136 Casuarina Road,Under $10,Indian,3.5,1.377159,103.828089
Cat Cafe Neko No Niwa,54A Boat Quay #02,$31 - $50,Multi-Cuisine,,1.287151,103.849254
Catalunya,"The Fullerton Pavilion, 82 Collyer Quay",$31 - $50,Spanish,4,1.284828,103.853901
Catch n Bite,"Westgate, 3 Gateway Drive #B2-K16",Under $10,,4,1.334461,103.742801
Causeway Bay Hong Kong Cafe,"The Centrepoint, 176 Orchard Road #01-105/106/107/110/111",Under $10,"Cantonese/Hong Kong, Chinese",3,1.301371,103.839735
C&#201; LA VI,"Marina Bay Sands Skypark, Hotel Tower 3, Level 57, 1 Bayfront Avenue",$51 - $80,,,1.284615,103.860933
Cedele,"The Rail Mall, 398 Upper Bukit Timah Road",$11 - $20,,3.5,1.359803,103.767623
Cedele,"Guthrie House, 1 Fifth Avenue #01-01",$11 - $20,,,1.330885,103.795785
Cedele,"Millenia Walk, 9 Raffles Boulevard #01-86",$11 - $20,,4,1.292083,103.859414
Cedele,"Raffles City Shopping Centre, 252 North Bridge Road #03-28A",$11 - $20,,4,1.293883,103.853502
Cedele,"Jelita Shopping Centre, 293 Holland Road #01-01 (Cold Storage)",$11 - $20,,,1.317491,103.785798
Cedele,"One Raffles Quay, 1 Raffles Quay #B2-02/03 (North Tower)",$11 - $20,,,1.281076,103.851901
Cedele,"Ngee Ann City, 391 Orchard Road, #B1-37 ",$11 - $20,,3.5,1.302664,103.834623
Cedele,"Wheelock Place, 501 Orchard Road #03-13A/14",$11 - $20,,4,1.304811,103.831198
Cedele,"Great World City, 1 Kim Seng Promenade #01-01/02",$11 - $20,,4.5,1.293902,103.831787
Cedele,"United Square, 101 Thomson Road #B1-35/36",$11 - $20,,4,1.316866,103.84377
Central Hong Kong Cafe,"Wheelock Place, 501 Orchard Road, #B2-01",$11 - $20,Cantonese/Hong Kong,,1.304811,103.831198
Central Hong Kong Cafe,"VivoCity, 1 Harbourfront Walk #B2-13/14",$11 - $20,Cantonese/Hong Kong,3.5,1.263928,103.822229
Centre Satay Bee Hoon,"Ang Mo Kio Market &amp; Food Centre, Blk 724 Ang Mo Kio Ave 6 #01-12",Under $10,,3,1.37008,103.849523
Cereal Citizen,"The Midtown, 1187 Upper Serangoon Road, #01-47",Under $10,,,1.370327,103.895253
Cha Cha Cha Mexican Restaurant,"Holland Village, 32 Lorong Mambong",$21 - $30,"Latin American/South American, Mexican",4,1.311803,103.796177
Chabuton,"313@Somerset, 313 Orchard Road #B2-01",$11 - $20,Japanese,3.5,1.301114,103.838872
Chai Chee Kway Chap,Blk 216 Bedok North Street 1 #01-67,Under $10,,3.5,1.36623,103.841479
Chai Chee Pork Porridge,"Bedok 85 Market, Blk 85 Bedok North St 4 #01-23",Under $10,,3.5,1.332,103.938762
Chakey&#39;s Serangoon Salt Baked Chicken,97 East Coast Road,$11 - $20,,3.5,1.305679,103.904166
Champion Bread,"Marsiling Point, Blk 306A , Woodland Street 31 #01-53",Under $10,,,1.296154,103.854832
Chan Chan Chan,"Ngee Ann City, 391 Orchard Road #B2 (Takashimaya Food Hall)",Under $10,Korean,,1.302664,103.834623
Chang Cheng Chinese Mixed Vegetable Rice,"Causeway Point, 1 Woodlands Square #04-01/04",Under $10,Chinese,,1.436185,103.785816
Chang Cheng Chinese Mixed Vegetable Rice,Blk 761 Yishun St 72 #01-338,Under $10,Chinese,,1.425474,103.833219
Chang Cheng Qu Gu Chicken Rice,"Yong Xing Mian Jia Can Shi, 154 Bukit Batok St 11",Under $10,Singaporean Chinese,,1.342762,103.76004
Chang Thai Authentic Thai Cuisine,Blk 151 Bishan St 11 #01-195,$11 - $20,Thai,,1.345283,103.855659
Changi Village Carrot Cake,"Changi Village Hawker Centre, Blk 2/3 Changi Village Road, #01-13",Under $10,"Singaporean, Chinese",,1.389658,103.988092
Chao Yue Xuan Seafood Restaurant,"UE Square, 207 River Valley Road #01-51/54 (River Wing)",$31 - $50,Cantonese/Hong Kong,3.5,1.292042,103.842617
Chao Zhou Fishball Noodles,"Kim Keat Palm Market &amp; Food Centre, Blk 22 Lorong 7 Toa Payoh #01-20",Under $10,,3.5,1.335532,103.85695
Chapter 55,246 Jalan Kayu Road,$11 - $20,Italian,,1.397833,103.873399
Char Casual Dining,393 Guillemard Road,$11 - $20,Cantonese/Hong Kong,3.5,1.311923,103.888294
Char-Grill Bar,Blk 511 Bishan Street 13 #01-522,Under $10,,3.5,1.349221,103.849909
Char-Grill Bar,"Foodclique, Blk 347 Bukit Batok Street 34 #01-252",Under $10,,4,1.362285,103.751264
Char-Grill Bar - Kopitiam,"Bishan North Shopping Mall, Blk 282 Bishan Street 22",Under $10,,4,1.358124,103.844661
Char Kway Teow . Fried Oyster . Fried Carrot Cake,"Alexandra Village Food Centre ,120 Bukit Merah Lane 1, #01-30",Under $10,,4,1.286295,103.804495
Char Restaurant,363 Jalan Besar,$11 - $20,Singaporean Chinese,,1.312653,103.85955
Charcoal Pit,"Realty Center, 15 Enggor St #12-00",$21 - $30,,,1.273842,103.844172
Charcoal Thai,"Nex, 23 Serangoon Central #B1-30/31",$21 - $30,Thai,,1.351221,103.872292
Charco&#39;s,Blk 608 Ang Mo Kio Ave 5,$21 - $30,Portuguese,3.5,1.378715,103.836939
Charisma D&#39; Venue,37 Joo Chiat Place,$11 - $20,Malay,,1.313525,103.900541
Charly T&#39;s - PasarBella,"The Grandstand, 200 Turf Club Road #02-06/K12",$21 - $30,,3.5,1.338869,103.792986
Charlyn&#39;s Milk Bar,"Chromos Building, 10 Biopolis Road #01-03",$11 - $20,,,1.303927,103.791473
Ch&#226;terais&#233;,"Westgate, 3 Gateway Drive #B2 (Isetan)",Under $10,Japanese,,1.334461,103.742801
Ch&#226;terais&#233;,"ION Orchard, 2 Orchard Turn, #B4-45/46",Under $10,Japanese,,1.304082,103.832016
Ch&#226;terais&#233;,"SingPost Centre, 10 Eunos Road 8, #01-134/135",Under $10,Japanese,,1.318727,103.893851
Ch&#226;terais&#233;,"Northpoint City, 1 Northpoint Drive, #01-152",Under $10,Japanese,,1.42846,103.836099
Chatime,"Novena Square Velocity, 238 Thomson Road #01-07",Under $10,Taiwanese,4,1.32044,103.843556
Chatime,"E!Hub, 1 Pasir Ris Close #02-101",Under $10,Taiwanese,4,1.377757,103.955297
Chatterbox,"Mandarin Orchard, 333 Orchard Road Level 5",$21 - $30,,3.5,1.302065,103.836341
Checkers Deli,"Hilton Singapore Hotel, 581 Orchard Road",$11 - $20,,4,1.305768,103.829106
Chef B Western Delight,"Amoy Street Food Centre, 7 Maxwell Road #01-38",Under $10,,,1.279352,103.846666
Chef Icon Nature Bakery,"5 Blair Plain Shop Houses, Kampong Bahru Road",Under $10,Italian,4,,
Chef Yamashita,"Blk 1 Tanjong Pagar Plaza, #02-44",Under $10,Japanese,4,1.27482,103.842748
Chef&#39;s Noodle,"HarbourFront Centre, 1 Maritime Square #01-99/100",$11 - $20,Korean,,1.264621,103.820249
Cheng Ji Chao Xia Mian Hao Jian,"Seah Im Food Centre, 2 Seah Im Road, #01-59",Under $10,,3.5,1.266641,103.819174
Cheng Long&#39;s Fish Soup,"AMK Hub, 53 Ang Mo Kio Ave 3 #03-12",Under $10,,,1.36926,103.849189
Cheng Mun Chee Kee Pig Organ Soup,24 Foch Road,Under $10,Teochew,3.5,1.312222,103.860048
Che&#39;Rose Nasi Padang - 128 Choices Coffeeshop,Blk 128 Lorong 1 Toa Payoh #01-811,Under $10,Malay,,1.337984,103.844307
Cherry Garden,"Marina Square, 5 Raffles Avenue",$31 - $50,Cantonese/Hong Kong,3.5,1.29178,103.857488
Chew Kee Eating House,8 Upper Cross Street,Under $10,Cantonese/Hong Kong,4,1.283709,103.845619
Chewy Junior,"Junction 8 Shopping Centre, 9 Bishan Place #B1-22",Under $10,,4,1.350045,103.848304
Chewy Junior,"Jurong Point, 1 Jurong West Central 2 #B1-26 (JP1)",Under $10,,4,1.322669,103.720709
Chewy Junior,"The Clementi Mall, 3155 Commonwealth Ave West #B1-19",Under $10,,4,1.314791,103.764247
Chewy Junior,"Tampines Mall, Blk 4 Tampines Central 5 #B1-K18",Under $10,,,1.35317,103.942798
Chi Ni Dou Fu,"ABC Brickworks Food Centre, Blk 6 Jalan Bukit Merah #01-141",Under $10,,4,1.286887,103.808075
Chia Bee Lor Mee,Blk 10 North Bridge Road,Under $10,,3,1.30555,103.863561
Chicken Hotpot,"Westgate, 3 Gateway Drive #04-08",$11 - $20,Sichuan,3.5,1.334461,103.742801
Chicken Hotpot,"Nex, 23 Serangoon Central #02-17",$11 - $20,Sichuan,3.5,1.351221,103.872292
Chicken House,255 Upper Thomson Road,Under $10,Hainanese,4,1.353362,103.833558
Chicken Rice - 846,"Khatib Central, Blk 846 Yishun Ring Road",Under $10,,,1.417172,103.834552
Chicken Rice - Asian Food Mall,"Lucky Plaza, 304 Orchard Road Level B1",Under $10,,2.5,1.30459,103.83407
Chicken Rice- Banquet,"Bedok Point, 799 New Upper Changi Road #04-01/04",Under $10,,,1.324952,103.932317
Chicken Rice - Best Caf&#233;,"Blk 291 Yishun Street 22, #01-369",Under $10,,,1.435808,103.836733
Chicken Rice - Cantine,"Jurong Point, 1 Jurong West Central 2 #B1-42/43/44 (JP1)",Under $10,Hainanese,,1.322669,103.720709
Chicken Rice- Food Junction Kitchen,"Sembawang Shopping Centre, 604 Sembawang Road #02-20",Under $10,"Singaporean, Hainanese, Chinese",,1.441732,103.824813
Chicken Rice - Gek Poh Food Court,"Gek Poh Shopping Centre, 762 Jurong West St 75 #01-308",Under $10,"Singaporean, Chinese",,1.348681,103.697808
Chicken Rice,"Hougang Mall, 90 Hougang Ave 10,#04-11",Under $10,,3,1.37243,103.893756
Chicken Rice - Nom&#39;s Cafe,"Esplanade Xchange, 90 Bras Basah Rd #B1-29/33A",Under $10,,,1.292859,103.855236
Chicken Rice – North Canteen,"Nanyang Polytechnic,180 Ang Mo Kio Ave 8 (Blk E)",Under $10,"Singaporean, Chinese",3.5,1.380099,103.849099
Chicken Rice,"Blk 334A, Sembawang Close",Under $10,,,1.33723,103.70008
Chicken Rice Stall - Tongseng Coffee Shop,496 North Bridge Road,Under $10,Singaporean,,1.298486,103.855868
Chicken Rice - V6 Food Court,"V6 Food Court, Blk 678 Choa Chu Kang Crescent",Under $10,,,1.401396,103.745182
Chicken Up,"Jurong East MRT, 10 Jurong East St 12 #01-01",$21 - $30,Korean,,1.333376,103.74186
Chicken Up,"Parkway Parade, 80 Marine Parade Road #01-10",$21 - $30,Korean,,1.300837,103.9055
Chicken Up,"Buangkok Mrt, Blk 277C Compassvale Link #01-13 (Unit No.2A)",$21 - $30,Korean,,1.381835,103.893915
Chicken Up,"Century Square, 2 Tampines Central 5 #01-44/45/46/47",$21 - $30,Korean,,1.352179,103.943933
Chicken Up,48 Tanjong Pagar Road,$21 - $30,Korean,4,1.27928,103.843644
Chihuly Lounge,"The Ritz-Carlton Millenia Singapore, 7 Raffles Ave",$31 - $50,Multi-Cuisine,4,1.290534,103.860074
Chikuyotei,"InterContinental Singapore, 80 Middle Road, #01-01",$81 - $150,Japanese,4.5,1.298437,103.854991
Chikuyotei,"InterContinental Singapore, 80 Middle Road",$51 - $80,Japanese,4.5,1.298437,103.854991
Chili&#39;s,"JCube, 2 Jurong East Central 1 #03-10",$11 - $20,American,3.5,1.333129,103.740221
Chili&#39;s,"Resorts World Sentosa, 8 Sentosa Gateway (The Bull Ring)",$31 - $50,American,4,1.25218,103.824175
Chilli Padi Nonya Restaurant,11 Joo Chiat Place #01-03,$31 - $50,Peranakan / Nonya,,1.313427,103.900076
Chin Chin Eating House,19 Purvis Street,Under $10,,4,1.296358,103.855591
Chin Mee Chin Confectionery,204 East Coast Road,Under $10,,3.5,1.307148,103.907088
China Whampoa Home Made Noodle,"Whampoa Makan Place, 91 Whampoa Drive #01-24",Under $10,,4,1.32307,103.85499
Chinatown Fried Dough Stick,"Chinatown Complex Market and Food Centre, 335 Smith St #02-163",Under $10,,3,1.28236,103.843546
Chinese Cooked Food - The Business Park,"Temasek Polytechnic, Blk 26 21 Tampines Ave 1 #01-03",Under $10,Singaporean Chinese,,1.34585,103.930232
Chinese Food,"Changi Airport Terminal 1, 80 Airport Boulevard (Canteen)",Under $10,Singaporean Chinese,,1.362591,103.990648
Chinese Mixed Rice - Kopitiam,"Tiong Bahru Plaza, 302 Tiong Bahru Road, #03-01/02 &amp; 55",Under $10,Chinese,,1.28643,103.827693
Ching Feng,"Sims Vista Market &amp; Food Centre, 49 Sims Place #01-22",Under $10,,,1.334539,103.852003
Chinta Manis,"King Albert Park, 11 King Albert Park #01-04",Under $10,Peranakan / Nonya,3.5,1.336909,103.779311
Chinta Manis,"Greenwich V, 1 Seletar Road #01-19",Under $10,Peranakan / Nonya,,1.38754,103.86912
CHIPPY British Take Away,"Plaza Singapura, 68 Orchard Road #B2-38",Under $10,English,3.5,1.300005,103.844626
CHIPPY British Take Away,"Tampines 1, 10 Tampines Central 1 #B1-K6",Under $10,English,4,1.367228,103.928218
Chir Chir,"Chinatown Point, 133 New Bridge Road",$21 - $30,Korean,,1.285849,103.84517
Chir Chir,"313@Somerset, 313 Orchard Road #B3-04/05/06",$21 - $30,Korean,3.5,1.301114,103.838872
Chiso Zanmai,"The Central, 6 Eu Tong Sen St #01-15",$21 - $30,Japanese,4,1.28878,103.846236
Chix A-Dish - Food Haven/Lawn,"Republic Polytechnic W4, Blk 37 Woodlands Ave 9 #01-10",Under $10,Malay,4,1.445259,103.785784
Cho Kee Noodle,Blk 186 Toa Payoh Central #01-402 (J99 Eating House),Under $10,"Singaporean, Chinese",,1.332639,103.850229
Chock Full Of Beans,Blk 4 Changi Village Road #01-2090,$11 - $20,,3.5,1.38908,103.98745
Chocolate Origin,"Bugis Junction, 200 Victoria St #B1-01/02",$21 - $30,,,1.298508,103.855434
Chocolate Origin,Blk 4 Changi Village Road #01-2084,$21 - $30,,4,1.38908,103.98745
Chocz,"Esplanade Mall, 8 Raffles Avenue #02-13/15",$11 - $20,"Swiss, European",4,1.289509,103.855511
Chomp Chomp Fried Kway Teow Mee,"Chomp Chomp Food Centre, 20 Kensington Park Road #01-35",Under $10,,3.5,1.364233,103.866536
Chomp Chomp Hai Wei Yuan Seafood BBQ,"Chomp Chomp Food Centre, 20 Kensington Park Road #01-01",$11 - $20,,4,1.364233,103.866536
Chomp Chomp Satay,"Chomp Chomp Food Centre, 20 Kensington Park Road",Under $10,"Singaporean, Chinese",4,1.364233,103.866536
Chong Chong Pork Porridge &amp; Macaroni,"Chomp Chomp Food Centre, 20 Kensington Park Road #01-23",Under $10,,3.5,1.364233,103.866536
Chong Pang Huat,"Chomp Chomp Food Centre, 20 Kensington Park Road #01-26",Under $10,,4,1.364233,103.866536
Choong Boon Market and Food Centre,"Blk 453A, Chong Boon Market &amp; Food Centre,  #01-28, Ang Mo Kio Avenue 10",Under $10,Singaporean Chinese,3.5,,
Chops,727 Ang Mo Kio Ave 6,Under $10,American,,1.372946,103.846077
Chopsuey Cafe,10 Dempsey Road #01-23,$51 - $80,Fusion,3.5,1.303287,103.810502
Chor Huat Pu Tien Seafood Restaurant,528 Macpherson Road,$51 - $80,Fujian/Heng Hwa,,1.332323,103.88435
Chotto Matte,54 Blair Road,$31 - $50,"European, Japanese, Fusion",,1.27593,103.83566
Choupinette,607 Bukit Timah Road #01-01,$31 - $50,French,3.5,1.324258,103.809542
Choupinette,607 Bukit Timah Road #01-01,$21 - $30,French,3.5,1.324258,103.809542
CHOW FUN Bar &amp; Restaurant,"The Grandstand, 200 Turf Club Road #01-08",$11 - $20,"Japanese, Korean, Thai, Singaporean Western",,1.338869,103.792986
Chuan Kee Satay,"51 Old Airport Road Food Centre &amp; Shopping Mall, 51 Old Airport Road #01-85",Under $10,Singaporean,4.5,1.280455,103.844656
Chuan Yi Pin,530 North Bridge Road #01-01,$11 - $20,Sichuan,3.5,1.298849,103.856125
Chuen Chuen Cafe,21 Tan Quee Lan St #01-01,Under $10,Hainanese,4,1.298586,103.856405
Chui Huay Lim Teochew Cuisine,"Chui Huay Lim Club, 190 Keng Lee Road #01-02",$31 - $50,Teochew,3.5,1.31409,103.841452
Chun Fa Wanton Noodle,57 Eng Hoon Street #01-88 (Tai Kwang Huat Coffee Shop),Under $10,"Singaporean, Chinese",,1.284906,103.833292
Chung Cheng,"Golden Mile Food Centre, 505 Beach Road #01-59",Under $10,,3.5,1.303082,103.863835
Churro101,"Bugis+, 201 Victoria Street #04-01",Under $10,Spanish,,1.300152,103.856221
Churros Factory,"Westgate, 3 Gateway Drive #B2-K2",Under $10,,,1.334461,103.742801
Churrosity,"Holland Village, 241 Holland Ave #01-02",Under $10,,3.5,1.311803,103.796177
Chye Seng Huat Hardware,150 Tyrwhitt Road,$11 - $20,,3.5,1.311508,103.860434
Ciao@,8 Haji Lane #01-01,$21 - $30,Italian,,1.300474,103.859409
Cicada,"3C River Valley Road, #01-10",$31 - $50,"Asian Variety, Fusion",,1.290312,103.846721
Ciel P&#226;tisserie,Blk 124 Hougang Ave 1 #01-1444,$11 - $20,French,3.5,1.28594,103.803512
Circa 1912,"Shaw Centre, 1 Scotts Road, #03-07/11",$21 - $30,Cantonese/Hong Kong,,1.306359,103.831646
Citrus By The Pool,"Woodlands Swimming Complex, 3 Woodlands Street 13",$11 - $20,Fusion,,1.434862,103.77913
City Hong Penang Laksa,"City Plaza, Blk 810 Geylang Road",Under $10,,,1.314618,103.893573
City Hot Pot,"One Raffles Place, 1 Raffles Place #04-28",$31 - $50,Chinese,,1.28453,103.850971
City Space,"Swiss&#244;tel The Stamford, 2 Stamford Road (Equinox Complex)",$31 - $50,,,1.351975,103.778257
Classic Lao Di Fang Vegetarian Restaurant,"Park Mall, 9 Penang Road #B1-12",$11 - $20,,3.5,1.29789,103.845214
Clinton Street Baking Company,31 Purvis St,$21 - $30,American,3.5,1.296324,103.855128
Coastes,50 Siloso Beach Walk,$21 - $30,,3.5,1.252507,103.815987
Coca Restaurant,"Kallang Leisure Park, 5 Stadium Walk #02-01",$51 - $80,Thai,,1.302106,103.876429
Coco Ichibanya,"Westgate, 3 Gateway Drive Level 1",$11 - $20,Japanese,3,1.334461,103.742801
Coco Ichibanya,"313@Somerset, 313 Orchard Road #B3-25/27",$11 - $20,Japanese,4,1.301114,103.838872
Cocobolo Poolside Bar + Grill,"Park Hotel Clarke Quay, 1 Unity St",$11 - $20,,,1.291546,103.842327
Cocotte,2 Dickson Road,$31 - $50,"French, Middle Eastern/Mediterranean, European",3.5,1.305121,103.85463
Coffee Hut,"Berseh Food Center, 166 Jalan Besar #02-43",Under $10,,,1.307408,103.856836
Coffee Kaki,"AMK Hub, 53 Ang Mo Kio Ave 3 #B1-51C",Under $10,Singaporean Western,3.5,1.36926,103.849189
Coffee Lounge,"Goodwood Park Hotel, 22 Scotts Road",$31 - $50,,4,1.308678,103.834669
Coffee &amp; Toast,"Changi Airport Terminal 1, 80 Airport Boulevard (Departure Check-In Hall)",Under $10,"Thai, Singaporean",,1.362591,103.990648
Coffeesmith,"Bedok Mall, 311, New Upper Changi Road, #01-78",$11 - $20,Korean,,1.324493,103.929484
Cold Stone Creamery,"Orchard Central, 181 Orchard Road #01-09/10/15",Under $10,,4,1.300813,103.839903
Collective Brewers,301 Changi Road,Under $10,,3.5,1.318257,103.907408
Collin&#39;s Grille,"Shaw Plaza, 360 Balestier Road #01-12",$21 - $30,Japanese,4.5,1.324917,103.850964
Collin&#39;s Grille,"Foodloft, Blk 159A Hougang St 11 #01-02",$21 - $30,Japanese,4,1.351519,103.879494
Collin&#39;s Grille,Blk 203 Toa Payoh North #01-1097,$21 - $30,Japanese,3,1.342042,103.849182
Columbus Coffee Co.,220 Upper Thomson Road,$11 - $20,,,1.352913,103.835416
ComeBuy,190 Toa Payoh Lorong 6,Under $10,Taiwanese,4,1.332995,103.848325
Common Man Coffee Roasters,22 Martin Road #01-00,$21 - $30,,4,1.291884,103.838507
Comnam Broken Rice,"Raffles City Shopping Centre, 252 North Bridge Road #B1-46/47",$11 - $20,Vietnamese,3.5,1.293883,103.853502
CONCETTO by saveur,"The Cathay, 2 Handy Road #01-11",$31 - $50,"Spanish, French",3.5,1.299052,103.84788
Congee / Hot Plate - Food Fare,"AMK Hub, 53 Ang Mo Kio Ave 3 #03-12",Under $10,Cantonese/Hong Kong,,1.36926,103.849189
Cook &amp; Brew,"The Westin Singapore, 12 Marina View Level 33",$31 - $50,,,1.278307,103.850795
Cook United,Blk 446 Pasir Ris Drive 6 #01-128,Under $10,,,1.370486,103.957386
CoolPlay Soft Serve,Blk 85B Lorong 4 Toa Payoh #01-332B,Under $10,Taiwanese,,1.336281,103.847881
Coriander,220 East Coast Road,$11 - $20,Fusion,,1.307388,103.907423
Corner House,"Singapore Botanic Gardens, EJH Corner House, 1 Cluny Road",$51 - $80,Multi-Cuisine,,1.314914,103.816051
Costa Coffee,"Valley Point, 491 River Valley Road",Under $10,English,,1.29304,103.8269
Cove Stadium,"Quayside Isle, 31 Ocean Way #01-04 / 05",$31 - $50,American,4,1.247233,103.842222
Cozy Bistro &amp; Lounge,"2 Jalan Lokam, Kensington Square #01-51/52",$11 - $20,"Cantonese/Hong Kong, Multi-Cuisine",,1.417993,103.70877
Craftholic meets Kki,"School Of The Arts Singapore, 1 Zubir Said Drive #02-01",$11 - $20,Japanese,3.5,1.299138,103.848425
Craftsmen Specialty Coffee,"Eastwood Centre, 20 Eastwood Drive #01-06",$11 - $20,,,1.321532,103.955542
Cream &amp; Custard,46 Jalan Bukit Ho Swee #01-894,$11 - $20,French,,1.288296,103.826158
Creamier Handcrafted Ice Cream and Coffee,Blk 128 Toa Payoh Lorong 1 #01-835,Under $10,,4,1.338186,103.844325
Create Healthy Lifestyle,"Fortune Centre, 190 Middle Road #02-17",Under $10,,4,1.300401,103.852211
Creative Cafe,Blk 304 Ubi Ave 1 #01-95,Under $10,,,1.366115,103.844112
Creative Eateries Pte Ltd,211 Henderson Road #05-03,$21 - $30,"Western Variety, Japanese, Thai",,1.281958,103.819617
Criollo Cocoa Cafe,"Orchard Gateway, 277 Orchard Road #02-01",$11 - $20,,3.5,1.301085,103.838988
Croute By Hummerstons,"Valley Point, 491 River Valley Road #01-11/12",$11 - $20,,,1.29304,103.8269
Crown Bakery &amp; Cafe,"Crown Centre, 557 Bukit Timah Road #01-03",$11 - $20,,,1.323007,103.811127
Crystal Jade Golden Palace,"Paragon, 290 Orchard Road #05-22",$51 - $80,"Cantonese/Hong Kong, Teochew",4,1.303628,103.835548
Crystal Jade Jiang Nan,"VivoCity, 1 Harbourfront Walk #01-52",$11 - $20,Cantonese/Hong Kong,4,1.263928,103.822229
Crystal Jade Kitchen,"Plaza Singapura, 68 Orchard Road #02-32",$11 - $20,Cantonese/Hong Kong,4,1.300005,103.844626
Crystal Jade Kitchen,"Ngee Ann City, 391 Orchard Road #B2-38",$11 - $20,Cantonese/Hong Kong,3.5,1.302664,103.834623
Crystal Jade Kitchen,"Great World City, 1 Kim Seng Promenade #03-30",$11 - $20,Cantonese/Hong Kong,5,1.293902,103.831787
Crystal Jade Kitchen,"Tampines Mall, 4 Tampines Central 5 #B1-11",$11 - $20,Cantonese/Hong Kong,3.5,1.352645,103.94473
Crystal Jade Kitchen,"Causeway Point, 1 Woodlands Square #05-10",$11 - $20,Cantonese/Hong Kong,4,1.436185,103.785816
Crystal Jade La Mian Xiao Long Bao,"Jurong Point JP2, 1 Jurong West Central 2 #03-96",$31 - $50,Shanghainese,4,1.339546,103.706107
Crystal Jade La Mian Xiao Long Bao,"Changi Airport Terminal 1, 80 Airport Boulevard, #03-54, Departure/Transit Lounge East Mezzanine Level 3",$21 - $30,Shanghainese,,1.362591,103.990648
Crystal Jade La Mian Xiao Long Bao,"Holland Village, 241 Holland Ave",$11 - $20,Shanghainese,4,1.311803,103.796177
Crystal Jade La Mian Xiao Long Bao,"Ngee Ann City, 391 Orchard Road #04-27",$11 - $20,Shanghainese,4,1.302664,103.834623
Crystal Jade La Mian Xiao Long Bao,"Great World City, 1 Kim Seng Promenade #02-43",$11 - $20,Shanghainese,3.5,1.293902,103.831787
Crystal Jade My Bread,"AMK Hub, 53 Ang Mo Kio Ave 3 #B1-48",Under $10,Cantonese/Hong Kong,3.5,1.36926,103.849189
Crystal Jade My Bread,"Singapore Changi Airport Terminal 3, 65 Airport Boulevard #B2-22",Under $10,Singaporean,4,1.356181,103.986372
Crystal Jade My Bread,"Yew Tee Point, 21 Choa Chu Kang North 6 #B1-50",Under $10,,4.5,1.397199,103.74683
Crystal Jade My Bread,"Suntec City Mall, 3 Temasek Boulevard #B1-114",Under $10,,4,1.293422,103.856858
Crystal Jade My Bread,"Holland Village, 2 Lorong Mambong",Under $10,,4,1.33866,103.847311
Crystal Jade My Bread,"IMM, 2 Jurong East St 21 #01-83",Under $10,,4,1.347118,103.728632
Crystal Jade Prestige,"Marina Bay Link Mall, 8A Marina Boulevard, #02-01",$11 - $20,Cantonese/Hong Kong,,1.281203,103.853251
Crystal Jade Viet Cafe,"Bugis+, 201 Victoria St #04-05",$11 - $20,Vietnamese,,1.300152,103.856221
CSB Seafood Special,"21 Food Centre, 1 Jalan Kukoh #01-15",Under $10,,,1.357936,103.885407
Cupcake Engineer,"Cluny Court, 501 Bukit Timah Rd #01-03A",Under $10,,,1.322627,103.814286
Curbside Cafe &amp; Wine Bar,"Nucleos, 21 Biopolis Drive #01-21",$11 - $20,American,,1.301786,103.792123
CUT,"2 Bayfront Avenue, Marina Bay Sands #B1-71 (The Shoppes)",$151 - $300,European,3.5,1.285582,103.860111
Da Dong Prawn Noodle,"Mellvin Coffee Shop, 354 Joo Chiat Road",Under $10,,,1.308488,103.902958
Da Jie Famous Wanton Noodle,209 Jalan Besar,Under $10,,4,1.308953,103.857414
Da Jie Niang Dou Fu,354 Clementi Ave 2 #01-253,Under $10,,,1.313961,103.771113
Da Luca Italian Restaurant,"Goldhill Plaza, 1 Goldhill Plaza #01-1921",$21 - $30,Italian,4,1.318146,103.842805
Da Paolo Dempsey,"8 Dempsey Road, #01-13",$31 - $50,Italian,,1.304128,103.809547
Dae Gweol,65 Tras Street,$21 - $30,Korean,,1.277705,103.84447
Dae Ssik Sin,"Orchard Gateway, 277 Orchard Road #03-17",$11 - $20,Korean,,1.301085,103.838988
Daehwa,"1 Fusionopolis Place, Galaxis Building, #01-35",$11 - $20,Korean,,1.299157,103.788001
Daidomon Restaurant,"Keypoint, 371 Beach Road #01-18/19",$11 - $20,Japanese,,1.302312,103.862348
Daikokuya Ramen Dining,"Paragon, 290 Orchard Road #B1-47",$21 - $30,Japanese,3.5,1.303628,103.835548
Daily Fresh,"Chomp Chomp Food Centre, 20 Kensington Park Road #01-03",Under $10,,3.5,1.364233,103.866536
Dallas Restaurant &amp; Bar,31 Boat Quay,$21 - $30,Multi-Cuisine,4,1.286085,103.849805
Dallas Restaurant &amp; Bar,"Suntec City Mall (North Wing), 3 Temasek Boulevard #03-302/303",$21 - $30,American,,1.293422,103.856858
Dancing Crab,"The Grandstand, 200 Turf Club Road #01-20/21",$31 - $50,American,,1.338869,103.792986
Dann&#39;s Daily Pescetarian Cafe,"Eastwood Centre, 20 Eastwood Road #01-06",$21 - $30,,3.5,1.321532,103.955542
DANRO,"Nex, 23 Serangoon Central #02-04/05/06",$11 - $20,Japanese,3.5,1.351221,103.872292
Dapper Coffee,73 Amoy St #2,Under $10,,,1.280306,103.846608
Dashen Minced Meat Noodles - Kopitiam,"Plaza Singapura, 68 Orchard Road #06-15/17",Under $10,"Singaporean, Chinese",,1.300005,103.844626
Dashi Master Marusaya,"Robertson Blue, 86 Robertson Quay #01-01",$21 - $30,Japanese,,1.290298,103.837171
Dawn&#39;s,"GHK Coffeeshop, Blk 407 Ang Mo Kio Ave 10 #01-733",Under $10,,,1.362243,103.855524
Dazzling Cafe,"Capitol Piazza, 15 Stamford Road #01-85",$11 - $20,Taiwanese,3.5,1.293012,103.851211
db Bistro &amp; Oyster Bar,"Marina Bay Sands, 2 Bayfront Avenue #B1-48 (The Shoppes, Galleria Level)",$81 - $150,"American, French",4,1.283697,103.860723
D&#39;Bell,43 North Canal Road,$21 - $30,Indian,,1.287215,103.846853
DC Super Heroes Cafe,"The Shoppes at Marina Bay Sands, 2 Bayfront Avenue L1-03",$21 - $30,American,,1.284884,103.859415
De Burg Caf&#233;,119 Bukit Merah Lane 1 #01-40,$11 - $20,American,3.5,1.286116,103.804833
De Classic Golden Spoon,Blk 62 Seng Poh Lane,$11 - $20,,4,1.28382,103.833406
De Ji Shu Shi,"Kebun Baru Food Centre, Blk 226H Ang Mo Kio Street 22 #01-23",Under $10,"Singaporean, Chinese",3,1.367195,103.840009
Dean &amp; Deluca,"Orchard Central, 181 Orchard Road #04-23/24",$21 - $30,American,3.5,1.300813,103.839903
Decker Barbecue,"The Quayside, 60 Robertson Quay #01-17",$11 - $20,American,,1.290185,103.839111
Defu BBQ,"East Coast Lagoon Food Village, 1220 East Coast Parkway #01-19",Under $10,"Malay, Singaporean Chinese",3.5,1.306871,103.934992
Delicacy by Food &amp; Wine Merchants,10 Gemmill Lane,$21 - $30,"Spanish, European",,1.282425,103.846955
Delicious Boneless Chicken Rice - Katong Gourmet Centre,"Katong Shopping Centre, 865 Mountbatten Road #B1-85/87",Under $10,,4,1.30382,103.901013
Delicious Stew Soup - CHOICE@338,Blk 338 Ang Mo Kio Ave 1,Under $10,"Singaporean, Chinese",,1.363897,103.848728
Delifrance,"Lot One Shoppers&#39; Mall, 21 Choa Chu Kang Ave 4 #03-14A",Under $10,French,3.5,1.385003,103.744925
Delifrance,"Parkway East Hospital, 321 Joo Chiat Place",Under $10,French,,1.31512,103.909016
Delifrance,"UE Square, 81 Clemenceau Ave #01-25",Under $10,French,4,1.292042,103.842617
Delifrance,"Mount Elizabeth Hospital, 3 Mount Elizabeth Level 2 (Blk B)",Under $10,French,,1.305013,103.835361
Delifrance,"Great World City, 1 Kim Seng Promenade #B1-16/17",Under $10,French,,1.293902,103.831787
Delifrance,"Seletar Mall, 33 Sengkang West Avenue #02-K6",Under $10,French,,1.391425,103.87623
Delifrance,"Siglap Centre, 55 Siglap Road, #B1-13",Under $10,French,,1.312522,103.923278
Delifrance,"Tampines Mall, 4 Tampines Central 5 #01-38",Under $10,French,4,1.352645,103.94473
Delifrance,"Thomson Medical Centre, 339 Thomson Road #01-05",Under $10,French,3.5,1.325377,103.841491
Delisnacks,261 Serangoon Central Drive,Under $10,Singaporean Chinese,,1.354187,103.872334
DEN,29 Boon Tat St,$21 - $30,European,,1.281185,103.848607
Department of Caffeine,"Duxton, 15 Duxton Road",$11 - $20,,3.5,1.279768,103.843412
De&#39;Pop Culture,749 North Bridge Road #01-01 (Off Jalan Kledek),Under $10,"American, Italian, Singaporean",,1.303321,103.859161
Dessert Bowl,80A Serangoon Garden Way,Under $10,,4,1.364307,103.865086
Dessert.Cup,"Raffles City Shopping Centre, 252 North Bridge Road #B1-73",Under $10,,3.5,1.293883,103.853502
Dessert First,8 Liang Seah St #01-04,Under $10,,4,1.297946,103.856666
Dessert - Food Village,"Ngee Ann City, 391 Orchard Road #B2 (Takashimaya Food Hall)",Under $10,,,1.302664,103.834623
Dessert Hut,"Tanjong Pagar Plaza, 1 Tanjong Pagar Plaza",Under $10,Fusion,3,1.275574,103.842828
Dessert Project,22 Havelock Road #01-673,Under $10,,3.5,1.288731,103.828831
Dessert,"Tampines Mall, 4 Tampines Central 5 #04-27/28/29",Under $10,,,1.352645,103.94473
Dessert Times,Blk 5 Changi Village Road #01-2013,Under $10,Multi-Cuisine,,1.388832,103.986826
Desserts - Banquet,"The Verge, 2 Serangoon Road #04-01-08",Under $10,,,1.304903,103.851694
Desserts Kopitiam,"Suntec City Mall, 3 Temasek Boulevard #03-367/368/369/370",Under $10,,,1.293422,103.856858
Desserts - Kopitiam,"Singapore General Hospital, 1 Hospital Drive",Under $10,,3.5,1.281923,103.836859
Desserts - Kopitiam,"The Centrepoint, 176 Orchard Road #B2-101",Under $10,,,1.301371,103.839735
Desserts - Kopitiam,"Northpoint, 930 Yishun Ave 2 #B2-10",Under $10,,,1.42846,103.836099
Desserts - Malaysian Food Street,"Resorts World Sentosa, 8 Sentosa Gateway #1",Under $10,Malaysian,4,1.25218,103.824175
DessertStory,"Nex, 23 Serangoon Central #03-17",Under $10,,3.5,1.351221,103.872292
DessertStory,"Tiong Bahru Plaza, 302 Tiong Bahru Road #B1-05A",Under $10,,3.5,1.28643,103.827693
DessertStory,"Northpoint, 930 Yishun Ave 2 #B1-21/22",Under $10,,3.5,1.42846,103.836099
d&#39;Good Cafe,"Holland Village, 273 Holland Ave #02-01/02",$11 - $20,,3.5,1.311803,103.796177
Dian Xiao Er,"Nex, 23 Serangoon Central #02-09/10",$21 - $30,Singaporean Chinese,4,1.351221,103.872292
Dian Xiao Er,"Tampines 1, 10 Tampines Central 1 #04-07/08",$11 - $20,Beijing,3.5,1.367228,103.928218
Dian Xiao Er,"Causeway Point, 1 Woodlands Square #03-02",$11 - $20,Chinese,4,1.436185,103.785816
Diandin Leluk Thai Restaurant,"Golden Mile Complex, 5001 Beach Road #01-67/68/69",$11 - $20,Thai,3.5,1.302751,103.865174
Dibs,"Duxton, 51 Duxton Road",$21 - $30,European,,1.278258,103.843363
Dim Sum - Koufu,"HDB Hub, Blk 500 Lorong 6 Toa Payoh #02-30",Under $10,Cantonese/Hong Kong,3.5,1.331922,103.848506
Din Hao Wei,"Blk 456 Jurong West St 41, #01-726",$21 - $30,"Cantonese/Hong Kong, Chinese",,1.350693,103.719921
Din Tai Fung,"Junction 8 Shopping Centre, 9 Bishan Place #01-41",$11 - $20,,4,1.350045,103.848304
Din Tai Fung,"Jem, 50 Jurong Gateway Road #02-07",$11 - $20,,4,1.333169,103.743536
Din Tai Fung,"Resorts World Sentosa, 8 Sentosa Gateway (The Forum)",$11 - $20,Taiwanese,4,1.255696,103.820216
Din Tai Fung,"Nex, 23 Serangoon Central #B1-10",$11 - $20,,3.5,1.351221,103.872292
Din Tai Fung,"313@Somerset, 313 Orchard Road #B2-01/03",$11 - $20,"Taiwanese, Chinese",4,1.301114,103.838872
Dinata,"Lot One Shoppers&#39; Mall, 21 Choa Chu Kang Ave 4  #B1-K9",Under $10,Portuguese,,1.385003,103.744925
Dinata,"313@Somerset, 313 Orchard Road #B3-42",Under $10,Portuguese,,1.301114,103.838872
Ding Ji - Bee Hwa Yun,Blk 177 Toa Payoh Central,Under $10,"Teochew, Chinese",,1.333809,103.848612
Ding Ji,"Blk 325, Clementi Avenue 5, #01-155",Under $10,Teochew,,1.367215,103.899049
Dippin&#39; Donut,"Vivo City, 1 Harbourfront Walk, #02-125",Under $10,American,4,1.264049,103.820981
District 10 Bar &amp; Restaurant,"Suntec City Mall, 3 Temasek Boulevard #01-514/515 (North Wing)",$21 - $30,European,4,1.293422,103.856858
District 10 Bar Tapas Restaurant,"The Star Vista, 1 Vista Exchange Green #01-42/K3",$21 - $30,European,3.5,1.306871,103.78857
District 10,"10 Winstedt Road, #01-17",$21 - $30,"French, Italian",4,1.310158,103.841937
Divine Chicken Pot,"Kopitime@PLQ Mall, 10 Paya Lebar Road, #04-11",Under $10,Sichuan,,1.317636,103.893064
Do.Main Bakery,226 Tanjong Katong Road,$11 - $20,,3.5,1.307015,103.895336
Doi Chaang Coffee,"Rochester Mall, 35 Rochester Drive #01-08",Under $10,Thai,,1.305607,103.788051
Doi Chaang Coffee,321 Clementi Avenue 3 #01-02,Under $10,Thai,,1.311986,103.765021
Dolce Tokyo,"Bugis Junction, 200 Victoria St #03-10H",$11 - $20,"Italian, Japanese, Fusion",,1.298508,103.855434
Dolce Tokyo,"313@Somerset, 313 Orchard Road #03-41",$11 - $20,"Italian, Japanese, Fusion",3.5,1.301114,103.838872
Dolce Vita,"Mandarin Oriental Singapore, 5 Raffles Avenue Level 5",$51 - $80,Italian,4.5,1.290661,103.858324
D&#244;me,"Bishan Community Club, Blk 51 Bishan St 13 #01-02",$21 - $30,American,3.5,1.354034,103.85233
D&#244;me,"Plaza Singapura, 68 Orchard Road #03-92",$21 - $30,American,3,1.300005,103.844626
D&#244;me,"Shaw House, 350 Orchard Road Level 4 (Isetan Scotts)",$21 - $30,,4,1.305589,103.83168
Domino&#39;s Pizza,Blk 111 Jalan Bukit Merah #01-1678,$11 - $20,Italian,4,1.28032,103.826182
Domino&#39;s Pizza,943/945 Upper Serangoon Road,$11 - $20,Italian,3,1.361457,103.88618
Domino&#39;s Pizza,Blk 166 Woodlands St 13 #02-525,$11 - $20,Italian,,1.434235,103.77553
Don Your Personal Pie Club,"Nex, 23 Serangoon Central #03-K18",Under $10,Singaporean,3.5,1.351221,103.872292
Dong Dae Mun,"Plaza Singapura, 68 Orchard Road #B2-42",Under $10,Korean,4,1.300005,103.844626
Dong Dong Hainanese Chicken Rice,"People&#39;s Park Complex Food Centre, 32 New Market Road #01-1110",Under $10,"Singaporean, Chinese",,1.292856,103.859838
Dong Ji Fried Kway Teow,"51 Old Airport Road Food Centre &amp; Shopping Mall, 51 Old Airport Road #01-138",Under $10,"Singaporean, Chinese",3.5,1.280455,103.844656
Donna Carmela,"Hillcrest Park, 2 Greenwood Ave",$21 - $30,Latin American/South American,3.5,1.331304,103.807373
Don&#39;s Pie &amp; Cake,"North Toa Payoh Food Centre II, 1008A Toa Payoh",$31 - $50,Chinese,,1.343274,103.846583
Doodle!,"Oasia Hotel, 8 Sinaran Drive",$11 - $20,Italian,,1.32003,103.844782
Doodle! &amp; Switch!,"Millenia Walk, 9 Raffles Boulevard #01-88/89",$11 - $20,Fusion,,1.292083,103.859414
Doong Ji Korean Restaurant,222 East Coast Road,$21 - $30,Korean,4,1.307405,103.907474
Dose,139 Tyrwhitt Road #01-03,$11 - $20,,,1.311577,103.859941
Doubleshots Cafe,"SouthBank, 883 North Bridge Road #01-10",Under $10,American,,1.303342,103.859187
Dove Desserts,"Kim Keat Palm Market &amp; Food Centre, Blk 22 Lorong 7 Toa Payoh #01-21",Under $10,,3.5,1.335532,103.85695
dr.CAFE COFFEE,"I12 Katong, 112 East Coast Road #01-02",Under $10,,,1.305462,103.904652
Dragon Bowl,"Aperia Mall, 12 Kallang Avenue #02-09",$21 - $30,Cantonese/Hong Kong,4,1.310411,103.864535
Dragon Phoenix Classic,"Novotel Singapore Clarke Quay, 177A River Valley Road Level 6",$31 - $50,Cantonese/Hong Kong,4,1.291667,103.844507
Drinks and Desserts Stall - Rasapura Masters,"Marina Bay Sands, 2 Bayfront Avenue #B2-50 (The Shoppes)",Under $10,,4,1.283697,103.860723
Drinks - Koufu,"Anchorpoint, 370 Alexandra Road #B1-20/21",Under $10,,4.5,1.28871,103.805077
Drinks - Koufu,"SMU Li Ka Shing Library, Blk 70 Stamford Road B1-26/28",Under $10,,,1.296332,103.850055
Drinks - Kuan Food Court,"120/122 Neil Road, Kuan Food Court",Under $10,,,1.27899,103.841647
Drinks Stall,"SK Coffee Shop, 56 New Upper Changi Road #01-1366",Under $10,,,1.32479,103.940878
Drinks Stall - Hup Choon Eating House,1 Binjai Park,Under $10,Singaporean,,1.335977,103.786535
Drury Lane,"JTC Summit, 8 Jurong Town Hall Road Level 2",$11 - $20,,,1.331214,103.741721
Drury Lane,94 Tanjong Pagar Road,$11 - $20,,3.5,1.278272,103.843622
D&#39;Star Bistro,"SUTD Building 1, 8 Somapah Road #01-102",$21 - $30,"Italian, Western Variety",,1.34084,103.9639
DSTLLRY,"Infinite Studios, 21 Media Circle #01-01",$11 - $20,Japanese,,1.292409,103.79462
Duck Rice. Fishball Noodle - HG631 Food House,"HG631 Food House, 631 Hougang Avenue 8 #01-08",Under $10,"Singaporean, Chinese",,1.37056,103.88141
Duckland,"PLQ Mall, 10 Paya Lebar Road, #B2-33",$21 - $30,Fusion,,1.317369,103.893266
Duke Bakery,"United Square, 101 Thomson Road #01-02/03",Under $10,,3.5,1.316866,103.84377
Duke Bakery,"Paya Lebar Square, 60 Paya Lebar Road #B1-28",Under $10,,,1.318786,103.892577
Dulu Kala The Peranakan Home,"Beauty World Centre, 144 Upper Bukit Timah Road #04-04",$11 - $20,Peranakan / Nonya,4,1.342492,103.776647
Dulukala at Island,"Tangs Plaza, 310 Orchard Road",$31 - $50,Peranakan / Nonya,,1.304755,103.833069
Dunkin&#39; Donuts,"Bugis Junction,  200 Victoria St #B1-K26",Under $10,American,,1.298508,103.855434
Dunkin&#39; Donuts,"ION Orchard, 2 Orchard Turn #B4-60",Under $10,American,4,1.304082,103.832016
DurianBB,"462 Crawford Lane, #01-65",Under $10,Singaporean,,1.304517,103.860917
Dutch Colony Coffee Co.,113 Frankel Avenue,Under $10,European,,1.314253,103.919528
"Dynasty F&amp;B (Seafood Restaurant, Curry Mixed Rice)",520 MacPherson Road,$11 - $20,Chinese,,1.332281,103.884158
E-Sarn,"Ridgewood Condominium, 5 Ridgewood Close Unit G2",Under $10,Thai,,1.315956,103.777668
E-Sarn,9 Thomson Ridge,Under $10,Thai,3,1.352895,103.833787
Each-A-Cup,"Concorde Hotel &amp; Shopping Mall, 100 Orchard Road (Juz Food Court)",Under $10,Taiwanese,,1.300648,103.842193
Each-A-Cup,"One Raffles Place, 1 Raffles Place #B1-03A",Under $10,Taiwanese,,1.28453,103.850971
Each-A-Cup,"Wilkie Edge, 8 Wilkie Road #01-06",Under $10,Taiwanese,,1.301832,103.849915
Each-A-Cup,"The Centrepoint, 176 Orchard Road #B1-14 (Cold Storage)",Under $10,Taiwanese,,1.301371,103.839735
Each-A-Cup - South Canteen,"Nanyang Polytechnic, 180 Ang Mo Kio Avenue 8 (Blk P)",Under $10,Taiwanese,3.5,1.380099,103.849099
Each-A-Cup,"Northpoint, 930 Yishun Ave 2 #B1-11/16",Under $10,Taiwanese,3.5,1.42846,103.836099
EagleWings Loft,"9 King Albert Park, #01-14/34, King Albert Park Residences Shopping Mall",$11 - $20,Multi-Cuisine,,1.336918,103.779127
Earle Swensen&#39;s,"VivoCity, 1 Harbourfront Walk #02-117",$11 - $20,American,3.5,1.263928,103.822229
East Coast Ngoh Hiang,245 Beach Road,Under $10,"Singaporean, Chinese",,1.300277,103.859569
East Manhattan,19 Lorong Kilat #01-03,$11 - $20,American,,1.340843,103.773638
Eastern Rice Dumpling,"Sembawang Shopping Centre, 604 Sembawang Road #B1-K4",Under $10,,,1.441732,103.824813
Eat At Taipei,"Chinatown Point, 133 New Bridge Road #01-43/44",$11 - $20,Taiwanese,3,1.285849,103.84517
Eat At Taipei,"JCube, 2 Jurong East Central 1 #03-03",$11 - $20,Taiwanese,3.5,1.333129,103.740221
Eat at Taipei,"Tampines Mall, 4 Tampines Central 5 #B1-02",$21 - $30,Taiwanese,,1.352645,103.94473
Eat at Taipei,"Tampines Mall, 4 Tampines Central 5 #B1-02",$21 - $30,Taiwanese,,1.352645,103.94473
EAT.,337 Bedok Road,Under $10,Singaporean,3,1.331141,103.947368
EAT.,"Jurong Point, 63 Jurong West Central 3 #01-76/77/78 (JP2)",Under $10,,3.5,1.338894,103.705622
EAT.,"The Rail Mall, 436 Upper Bukit Timah Road",Under $10,,3.5,1.359803,103.767623
EAT.,"Far East Plaza, 14 Scotts Road #01-23",Under $10,,3.5,1.307079,103.833146
EAT.,"Nex, 23 Serangoon Central #B1-59/60",Under $10,,4,1.351221,103.872292
EAT.,"Tiong Bahru Plaza, 302 Tiong Bahru Road #01-47",Under $10,Singaporean,,1.28643,103.827693
Eatzi Gourmet Bistro,"ITE College Central, 2 Ang Mo Kio Drive #01-01/02/03/04",$11 - $20,Fusion,3,1.377587,103.856322
Ebizo,"Gallery Hotel, 1 Nanson Road #02-01",$21 - $30,Japanese,,1.2898,103.8384
Economic Bee Hoon. Mixed Veg Rice. Porridge - 476 Food Loft,Blk 476 Tampines St 44 #01-205,Under $10,,4,1.388985,103.772848
Economic Rice - South Canteen,"Nanyang Polytechnic, 180 Ang Mo Kio Avenue 8 (Blk P)",Under $10,"Singaporean, Chinese",3.5,1.380099,103.849099
Economic Veg Rice . Porridge . Bee Hoon . Noodles - Kopitiam,"Rochor Centre, 1 Rochor Road",Under $10,Singaporean Chinese,3.5,1.303238,103.85539
Economical Rice - FoodPavilion,Blk 443 Clementi Avenue 3 #01-55,Under $10,"Singaporean, Chinese",,1.365705,103.856107
Economical Rice - Makan Place,"Ngee Ann Polytechnic, 535 Clementi Road Blk 51",Under $10,Singaporean Chinese,,1.335223,103.775284
Economy Bee Hoon,498 Jurong West Street 52,Under $10,"Singaporean, Chinese",,1.348742,103.724407
Ee Yuan,33 Dover Road #01-124,Under $10,,,1.29955,103.783603
Eeh! Eeh! Nak Lagi!!!,"Geylang Serai Market &amp; Food Centre, 1 Geylang Serai #02-120",Under $10,,,1.31681,103.898182
Eggs &amp; Berries,"Changi City Point, 5 Changi Business Park Central 1 #01-37/38",$11 - $20,American,3.5,1.334449,103.962887
Eggs &amp; Berries,"Westgate, 3 Gateway Drive #02-06",$11 - $20,American,3.5,1.334461,103.742801
Eggs &amp; Berries,"Tanglin Mall, 163 Tanglin Road #03-18",$11 - $20,American,,1.304787,103.82383
Eggs &#39;n Things,"Plaza Singapura,  68 Orchard Road, #03-79/83",$21 - $30,American,,1.300005,103.844626
Eight Treasures Vegetarian,282A South Bridge Road,$11 - $20,,4,1.281587,103.844646
Eighteen Chefs,"AMK Hub, 53 Ang Mo Kio Ave 3 #04-02",$11 - $20,Singaporean Western,3.5,1.36926,103.849189
Eighteen Chefs,"Bukit Panjang Plaza, 1 Jelebu Road #02-19",$11 - $20,Singaporean Western,,1.37956,103.764306
Eighteen Chefs,"Cathay Cineleisure Orchard, 8 Grange Road #04-02",$11 - $20,Singaporean Western,3.5,1.301454,103.836467
Eighteen Chefs,"Tiong Bahru Plaza, 302 Tiong Bahru Road #02-K1/K6",$11 - $20,Singaporean Western,3.5,1.28643,103.827693
El Patio Restaurant &amp; Wine Bar,"Holland Village, 34 Lorong Mambong",$21 - $30,"Latin American/South American, Mexican",4,1.311803,103.796177
El Rocho&#39;s,36 Circular Road,$11 - $20,"Latin American/South American, Mexican",,1.286604,103.849201
Ellenborough Market Cafe,"Swissotel Merchant Court Singapore, 20 Merchant Road",$31 - $50,"Peranakan / Nonya, Multi-Cuisine",3.5,1.288859,103.845423
Eminent Frog Porridge,323 Geylang Road,Under $10,Cantonese/Hong Kong,4,1.312813,103.879239
Empire State,"Causeway Point, 1 Woodlands Square #02-10/K10",$11 - $20,American,3.5,1.436185,103.785816
Empire State,"Greenwich V, 1 Seletar Road #02-04",$11 - $20,American,2.5,1.38754,103.86912
Encik Tan,"Waterway Point, 83 Punggol Central #B2-03",Under $10,Singaporean,,1.406656,103.902102
Eng Kee Chicken Wings,Blk 117 Commonwealth Drive #01-711,Under $10,,,1.306593,103.80027
Eng Kee - Sin Kee Heong,Blk 117 Commonwealth Crescent #01-711,Under $10,,,1.306574,103.800306
Eng Seng Restaurant,247/249 Joo Chiat Place,$21 - $30,Chinese,3,1.314348,103.905952
Eng&#39;s Noodles House,287 Tanjong Katong Road,Under $10,Cantonese/Hong Kong,4,1.306768,103.895887
Enoteca L&#39;Operetta,78/79 Boat Quay,$31 - $50,Italian,5,1.288341,103.849164
Entre Nous Creperie,27 Seah Street #01-01,$11 - $20,French,3.5,1.296292,103.854676
Erwin&#39;s Gastrobar,"Valley Point, 491 River Valley Road #01-21/22/23",$21 - $30,,,1.29304,103.8269
Escape Restaurant &amp; Lounge,"One Farrer Hotel, 1 Farrer Park Station Road",$31 - $50,"Singaporean, Multi-Cuisine",3.5,1.312951,103.853971
Eski Bar,"Circular Road, 46 Circular Road",$11 - $20,Russian,4,1.286117,103.84949
Eskimo,"Dhoby Xchange, 11 Orchard Road #B1-41",Under $10,Taiwanese,3.5,1.298593,103.845909
Everest Kitchen,518 MacPherson Road,$11 - $20,Indian,4.5,1.332319,103.884288
Everything with Fries,"Bugis Junction, 200 Victoria St #04-05",Under $10,,3.5,1.298508,103.855434
Everything with Fries,"Holland Village, 40 Lorong Mambong",Under $10,,3.5,1.311803,103.796177
Everything with Fries,"Orchard Central, 181 Orchard Road #01-24/25",$11 - $20,,3.5,1.300813,103.839903
Faber Bistro,"Faber Peak, 109 Mount Faber Road",$21 - $30,Multi-Cuisine,,1.271296,103.819352
Face to Face Noodle House,"City Square Mall, 180 Kitchener Road #02-23/24",Under $10,Malaysian,4.5,1.311361,103.856561
Famous BBQ Seafood,"Gardens By The Bay, 18 Marina Gardens Drive (Satay by the Bay)",Under $10,,,1.284366,103.865426
Famous Sungei Road Trishaw Laksa,"Hong Lim Market &amp; Food Centre, 531A Upper Cross Street, #02-66",Under $10,"Malay, Singaporean Chinese",4,1.285221,103.845905
Fantastic Handmade Noodles - Kopitiam,"Plaza Singapura, 68 Orchard Road #06-15/17",Under $10,"Singaporean, Chinese",3.5,1.300005,103.844626
fArt tArtz Cafe,1 Expo Drive #02-04,$11 - $20,,3.5,1.334308,103.959258
Fat Cow,"Camden Medical Center, 1 Orchard Boulevard #01-01/02",$81 - $150,Japanese,4,1.303119,103.82386
Fat Fish Steamboat,"Downtown East, 1 Pasir Ris Close #01-103/104 (E!hub)",$11 - $20,Thai,,1.377757,103.955297
Fatboy’s,187 Upper Thomson Road,$11 - $20,Multi-Cuisine,3.5,1.351526,103.835318
Fatboy&#39;s,465 Joo Chiat Road,$11 - $20,Multi-Cuisine,4,1.306681,103.904694
Fatboy&#39;s,122 Pasir Panjang Road,$11 - $20,Multi-Cuisine,3.5,1.276101,103.793238
Fatboy&#39;s,11 Kensington Park Road,$11 - $20,Multi-Cuisine,,1.365108,103.86609
Fatty Bom Bom,"494 Tampines Street 45, #01-66",Under $10,Western Variety,,1.363095,103.955844
